Name,latitude,longitude
1. Puy de Sancy ,45.7833, 2.8833
2. Puy de Dôme ,45.7833, 2.8833
3. Plomb du Cantal ,44.9167, 2.7500
4. Mont Lozère ,44.5333, 3.7000
5. Mont Mezenc ,45.2667, 4.1000
6. Mont Gerbier de Jonc ,44.9833, 4.0833
7. Mont Mézenc ,45.2667, 4.1000
8. Pic de Finiels ,44.6000, 4.2000
9. Grande Pierre Châtel ,45.4667, 3.8000
10 Mont Aigoual, 44.122778, 3.575