Name,latitude,longitude
Mont Blanc (4808 m),45.83250000,6.86444444
Monte Rosa / Mont Rose (Dufourspitze) (4634 m),45.93694444,7.86694444
Dom (4545 m),46.09388889,7.85888889
Lyskamm (4533 m),45.92222222,7.83555556
Weisshorn (4506 m),46.10138889,7.71583333
Matterhorn / Mont Cervin (4478 m),45.97638889,7.65861111
Dent Blanche (4357 m),46.03416667,7.61194444
Grand Combin (4314 m),45.93750000,7.29916667
Finsteraarhorn (4274 m),46.53722222,8.12611111
Zinalrothorn (4221 m),46.06500000,7.69027778
Grandes Jorasses (Pte Walker) (4208 m),45.86916667,6.98833333
Alphubel (4206 m),46.06305556,7.86388889
Rimpfischhorn (4199 m),46.02333333,7.88416667
Aletschhorn (4193 m),46.46500000,7.99388889
Strahlhorn (4190 m),46.01333333,7.90166667
Dent d'Hérens (4174 m),45.97000000,7.60527778
Breithorn (4164 m),45.94111111,7.74888889
Jungfrau (4158 m),46.53666667,7.96250000
Aig Verte (4122 m),45.93472222,6.97027778
Mönch (4107 m),46.55833333,7.99722222
Barre des Écrins (4102 m),44.92250000,6.36000000
Schreckhorn (4078 m),46.59000000,8.11805556
Ober Gabelhorn (4063 m),46.03861111,7.66805556
Gran Paradiso / Grand Paradis (4061 m),45.51805556,7.26722222
Piz Bernina (4049 m),46.38222222,9.90805556
Gross Fiescherhorn (4049 m),46.55138889,8.06138889
Gross Grünhorn (4044 m),46.53194444,8.07777778
Weissmies (4017 m),46.12777778,8.01222222
Lagginhorn (4010 m),46.15722222,8.00305556
Piz Zupò (3996 m),46.36833333,9.93138889
Fletschhorn (3985 m),46.16805556,8.00333333
Gletscherhorn (3983 m),46.51277778,7.96777778
Meije (3982 m),45.00472222,6.30861111
Eiger (3967 m),46.57750000,8.00527778
Grivola (3969 m),45.59583333,7.25750000
Grand Cornier (3962 m),46.05194444,7.61138889
Ailefroide (3954 m),44.88500000,6.35638889
Mont Pelvoux (3943 m),44.89750000,6.39666667
Piz Roseg (3937 m),46.37361111,9.88305556
Bietschhorn (3934 m),46.39166667,7.85083333
Trugberg (3933 m),46.54666667,8.01527778
Aig de Tré la Tête (3923 m),45.79472222,6.81500000
Pic Sans Nom (3913 m),44.89333333,6.38388889
Gross Wannenhorn (3906 m),46.49388889,8.09694444
Ortler (3905 m),46.50888889,10.54472222
Aig d'Argentière (3901 m),45.96000000,7.02000000
Ruinette (3875 m),45.97916667,7.40027778
Aig de Triolet (3870 m),45.91666667,7.02444444
Grande Casse (3855 m),45.40527778,6.82777778
Königspitze / Gran Zebrù (3851 m),46.47861111,10.56833333
Aig du Midi (3842 m),45.87861111,6.88750000
Monviso / Monte Viso / Vísol (3841 m),44.66750000,7.09083333
Bouquetins (3838 m),45.98222222,7.54527778
Tour Noir (3837 m),45.94888889,7.03750000
Brunegghorn (3833 m),46.12583333,7.74555556
Aig du Chardonnet (3824 m),45.96888889,7.00111111
Nesthorn (3821 m),46.41333333,7.92611111
Mont Dolent (3820 m),45.92250000,7.04611111
Aig des Glaciers (3816 m),45.77861111,6.80250000
Le Râteau (3809 m),45.00083333,6.28305556
Großglockner (3798 m),47.07416667,12.69444444
Schinhorn (3797 m),46.45166667,7.94666667
Pte de Zinal (3789 m),46.02694444,7.63055556
Lauterbrunnen Breithorn (3780 m),46.47861111,7.87666667
Mont Pourri (3779 m),45.52805556,6.86027778
Aig Noire de Peuterey (3774 m),45.81527778,6.89305556
Wildspitze (3770 m),46.88527778,10.86722222
Monte Cevedale (3769 m),46.44388889,10.61666667
Grande Ruine (3765 m),44.96777778,6.32972222
Aig de Leschaux (3759 m),45.88750000,7.00694444
Pte de Charbonnel (3752 m),45.28027778,7.05500000
Piz Morteratsch (3751 m),46.40277778,9.90166667
Aig de la Grande Sassière  (3747 m),45.50500000,7.00000000
Weißkugel (3739 m),46.79777778,10.72638889
Roche Faurio (3730 m),44.94194444,6.35805556
Mont Vélan (3726 m),45.89166667,7.25166667
Evêque (3716 m),45.96444444,7.50277778
Combin de Corbassière  (3716 m),45.97805556,7.28055556
La Singla (3714 m),45.94583333,7.47194444
Wetterhörner (Mittelhorn) (3704 m),46.63527778,8.12472222
Le Pleureur (3704 m),46.01638889,7.36916667
Balmhorn (3698 m),46.42500000,7.69361111
Dent Parrachée (3697 m),45.28916667,6.75638889
Torre del Gran San Pietro / Tour du Grand-Saint-Pierre (3692 m),45.52583333,7.35888889
Monte Disgrazia (3678 m),46.26916667,9.74944444
Pta San Matteo (3678 m),46.37777778,10.56722222
Uia di Ciamarella (3676 m),45.32861111,7.14527778
Dent de Perroc (3676 m),46.03944444,7.52305556
Dômes de Miage (3673 m),45.81555556,6.80027778
Les Bans (3669 m),44.84861111,6.33666667
Großvenediger (3666 m),47.10916667,12.34638889
Montagne des Agneaux (3664 m),44.95027778,6.43055556
Blüemlisalphorn (3661 m),46.48888889,7.77250000
Portjengrat: Pizzo d'Andolla (3654 m),46.10083333,8.03472222
Grande Motte (3653 m),45.41138889,6.87027778
Thurwieserspitze (3652 m),46.49527778,10.52527778
Aigs Rouges d'Arolla (3644 m),46.05527778,7.43361111
Ciarforon / Charforon (3640 m),45.49333333,7.24722222
Doldenhorn (3638 m),46.46888889,7.73472222
Albaron (3637 m),45.33250000,7.10277778
Dammastock (3630 m),46.64333333,8.42111111
Hintere Schwärze  (3628 m),46.77333333,10.91472222
Levanna Centrale (3619 m),45.41027778,7.17194444
Tödi (Piz Russein) (3614 m),46.81111111,8.91472222
Pte de Ronce (3612 m),45.26444444,6.97861111
Les Diablons (3609 m),46.14250000,7.67111111
Grande Rousse / Bec de l'Invergnan (3607 m),45.56333333,7.08444444
Tsanteleina (3602 m),45.47944444,7.04611111
Aig du Plat de la Selle (3596 m),44.96444444,6.22333333
Piz Glüschaint (3594 m),46.36250000,9.84000000
Bessanèse (3592 m),45.30222222,7.11944444
Les Rouies (3589 m),44.86444444,6.25861111
Grand Roc Noir (3582 m),45.33027778,6.89194444
Mont Brulé (3578 m),45.95500000,7.53833333
Croix Rousse / Croce Rossa (3571 m),45.26055556,7.13472222
Olan (3564 m),44.85944444,6.19722222
Großes Wiesbachhorn (3564 m),47.15638889,12.75527778
Le Plaret (3563 m),44.96861111,6.26000000
Cime de Clot Châtel (3563 m),44.89750000,6.28027778
Ouille d'Arbéron/Pta d'Arnas (3563 m),45.27166667,7.12805556
Aig de Péclet (3562 m),45.28138889,6.62444444
Tschingelhorn (3562 m),46.47861111,7.84861111
Tête de l'Étret (3559 m),44.89000000,6.24527778
Presanella (3558 m),46.22000000,10.66388889
Monte Emilius (3557 m),45.67888889,7.38472222
Aouille Tseuque (3554 m),45.93027778,7.44305556
Monte Leone (3553 m),46.24944444,8.11000000
Großer Ramolkogel (3550 m),46.84666667,10.95888889
Vertainspitze (3545 m),46.53722222,10.63555556
Schalfkogel (3540 m),46.80166667,10.95916667
Adamello (3539 m),46.15583333,10.49611111
Rocciamelone (3538 m),45.20388889,7.07694444
Hochvernagtspitze (3535 m),46.88138889,10.79611111
Watzespitze (3533 m),46.98944444,10.79555556
Bec d'Épicoune (3531 m),45.91472222,7.42250000
Mont Gelé (3518 m),45.90416667,7.36611111
Weißseespitze (3518 m),46.84666667,10.71722222
Aig Méridionale d'Arves (3514 m),45.12722222,6.33694444
Fineilspitze (3514 m),46.78027778,10.83194444
Punta Tersiva / Pointe Tersive (3513 m),45.62055556,7.47611111
Hochfeiler (3509 m),46.97222222,11.72777778
Zuckerhütl (3507 m),46.96444444,11.15388889
Aig de Scolette / Pierre Menue (3506 m),45.16000000,6.76861111
1Morion / Rion: Pointe Monro (3505 m),45.88138889,7.36777778
Galmihorn (3505 m),46.50666667,8.18500000
Becca di Luseney / Pic de Luseney (3503 m),45.87055556,7.49111111
Sustenhorn (3503 m),46.69888889,8.45527778
Dreiherrnspitze (3499 m),47.06916667,12.24083333
Schrankogel (3497 m),47.04388889,11.09916667
Rötspitze (3496 m),47.02694444,12.20527778
Grande Traversière (3496 m),45.52305556,7.05583333
Grand Nomenon (3488 m),45.61194444,7.23611111
Sonnighorn / Pizzo Bottarello (3487 m),46.07416667,8.02222222
Testa del Rutor (3486 m),45.63083333,7.01444444
Grande Aig Rousse (3482 m),45.43305556,7.10972222
Pic de Bonvoisin (3481 m),44.82361111,6.34694444
Großer Möseler (3480 m),46.99250000,11.78194444
Hochwilde (3480 m),46.76555556,11.02222222
Olperer (3476 m),47.05305556,11.65888889
Ruderhofspitze (3474 m),47.03944444,11.14333333
Hinterer Seelenkogel (3472 m),46.80166667,11.04444444
Grande Rousse S (Pic Bayle) (3465 m),45.13777778,6.13583333
Roche de la Muzelle (3465 m),44.93111111,6.10666667
Pic de l'Étendard (3464 m),45.15444444,6.14388889
Carè Alto (3463 m),46.10805556,10.59611111
Pic Garin (3462 m),45.65583333,7.37750000
Vordere Ölgrubenspitze (3456 m),46.90833333,10.77333333
Bliggspitze (3453 m),46.91805556,10.78611111
Johannisberg (3453 m),47.10944444,12.67277778
Piz Corvatsch (3451 m),46.40833333,9.81611111
Rinderhorn (3448 m),46.41361111,7.65416667
Wasenhorn (3447 m),46.49805556,8.16583333
Pointe de l'Aouillé (3446 m),45.52666667,7.14805556
Hintere Eggenspitze / Cima Sternai (3443 m),46.47777778,10.77055556
Roc du Mulinet (3442 m),45.38083333,7.16277778
Sirac (3441 m),44.78972222,6.30694444
Piz Tremoggia (3441 m),46.35194444,9.82194444
Dosson di Genova (3441 m),46.14861111,10.55361111
Truc Blanc (3440 m),45.58722222,7.16722222
Cima de' Piazzi (3439 m),46.41666667,10.28500000
Lagaunspitze (3439 m),46.73916667,10.73916667
Zufrittspitze (3439 m),46.50194444,10.78222222
Hochgall (3436 m),46.91083333,12.13972222
Gspaltenhorn (3436 m),46.51166667,7.82750000
Stellihorn (3436 m),46.03638889,8.00083333
Pte de la Sana (3436 m),45.38500000,6.91805556
Verpeilspitze (3425 m),47.00333333,10.80500000
Pte de l'Échelle (3422 m),45.26916667,6.68527778
Aig du Goleon (3422 m),45.10361111,6.32638889
Aig de l'Épéna (3421 m),45.41472222,6.81722222
Pics du Says (3420 m),44.87388889,6.30583333
Bifertenstock / Piz Durschin (3419 m),46.80444444,8.95750000
Piz Kesch / Piz d' Es-Cha (3418 m),46.62138889,9.87277778
Sommet de Bellecôte (3417 m),45.49250000,6.78250000
Fleckistock / Rot Stock (3416 m),46.70750000,8.49750000
Pte du Bouchet (3416 m),45.25416667,6.60416667
Aig de Chambeyron (3412 m),44.54777778,6.85666667
Piz Linard (3411 m),46.79888889,10.07166667
Schrammacher (3410 m),47.02694444,11.64305556
Hochfirst (3403 m),46.82666667,11.08111111
Rheinwaldhorn (3402 m),46.49361111,9.04027778
Aigs des Arias (3402 m),44.89555556,6.17416667
Fluchthorn (3399 m),46.89083333,10.22750000
Piz Calderas (3397 m),46.53638889,9.69583333
Großer Bärenkopf (3396 m),47.13083333,12.73166667
Hohe Geige (3395 m),47.00472222,10.90861111
Piz Platta (3392 m),46.48722222,9.56166667
Brec de Chambeyron (3389 m),44.52805556,6.85333333
Diechterhorn (3389 m),46.64861111,8.36055556
Veneziaspitze / Cima Venezia (3386 m),46.45388889,10.68916667
Pic Nord de la Font Sancte (3385 m),44.60500000,6.80027778
Punta di Fontanella (3384 m),45.90611111,7.55583333
Pta Sulè (3384 m),45.23138889,7.13750000
Rognosa d'Etiache / d'Étache (3383 m),45.13472222,6.83388889
Piz Güglia / Piz Julier (3380 m),46.49111111,9.75972222
Grand Tournalin (3379 m),45.87166667,7.68805556
Güferhorn (3379 m),46.51250000,9.06305556
Cima di Castello (3379 m),46.30305556,9.67694444
Großer Löffler (3379 m),47.03250000,11.91583333
Mont d'Ambin / Rocca d'Ambin (3378 m),45.15666667,6.88444444
Cima Viola (3374 m),46.38361111,10.19638889
Blinnenhorn / Corno Cieco (3374 m),46.42583333,8.30777778
Hoher Eichham (3371 m),47.05388889,12.40666667
Monte Confinale (3370 m),46.44944444,10.50444444
Pizzo Cengalo (3369 m),46.29500000,9.60194444
Schwarzenstein (3369 m),47.01000000,11.87416667
Hoher Tenn (3368 m),47.17972222,12.75944444
Malhamspitzen (3368 m),47.04916667,12.25944444
Egginer (3367 m),46.07527778,7.93000000
Innere Schwarze Schneid (3367 m),46.92416667,10.92138889
Piz Fora (3363 m),46.34083333,9.78472222
Hochalmspitze (3360 m),47.01500000,13.32111111
Corno dei Tre Signori (3360 m),46.34305556,10.51555556
Großer Geiger (3360 m),47.09305556,12.30888889
Wilde Leck (3359 m),47.00277778,11.06250000
Schneebiger Nock / Ruthnerhorn (3358 m),46.90527778,12.08416667
Grande Roise (3357 m),45.67527778,7.42305556
Rofelewand (3353 m),47.03250000,10.81833333
Glockturm (3353 m),46.89333333,10.66555556
Puitkogel (3345 m),46.98138889,10.90138889
Marmolada (Pta Penia) (3343 m),46.43472222,11.85083333
Bric de Rubren / Mongioia (3340 m),44.62000000,6.94972222
Piz Ela (3339 m),46.60194444,9.70750000
Roteck (3337 m),46.72361111,10.98416667
Pta Sommeiller (3332 m),45.12833333,6.85250000
Fuscherkarkopf (3331 m),47.09888889,12.74555556
Corno Baitone (3330 m),46.17305556,10.44111111
Mont Fort (3329 m),46.08111111,7.31861111
Grande Rochère (3328 m),45.81361111,7.06138889
Oberalpstock (3328 m),46.74277778,8.76944444
Busazza (3326 m),46.22388889,10.61111111
Tête de Lauranoure (3325 m),44.92638889,6.15194444
Pizzo Scalino (3323 m),46.27861111,9.97361111
Pic de Rochebrune (3320 m),44.82250000,6.78777778
Corno Bianco (3320 m),45.82277778,7.87916667
Groabhopt / Testa Grigia / Tête grise (3315 m),45.83083333,7.78666667
Mont Giusalet (3312 m),45.18055556,6.93000000
Piz Buin (3312 m),46.84416667,10.11861111
Mont Pelve (3312 m),45.35611111,6.77666667
Pta Lavina (3308 m),45.55555556,7.44861111
Pte de l'Aiglière (3307 m),44.81027778,6.41472222
Laaser Spitze / Orgelspitze (3305 m),46.56194444,10.71777778
Reichenspitze (3303 m),47.13944444,12.11083333
Piz Paradisin (3302 m),46.42611111,10.11722222
Pta Ramiere / Bric Froid (3302 m),44.86416667,6.93166667
Becca de Tos (3301 m),45.63027778,7.10666667
Verstanclahorn (3298 m),46.83500000,10.07250000
Cima Sud Argentera (3297 m),44.17805556,7.30583333
Monte Sobretta (3296 m),46.39750000,10.43694444
Strahlkogel (3295 m),47.10916667,11.01944444
Gross Schärhorn (3294 m),46.82722222,8.82916667
Muttler (3293 m),46.90055556,10.37861111
Grand Glaiza / Pta Merciantaira (3293 m),44.84916667,6.88250000
Hockenhorn (3293 m),46.42833333,7.74416667
Keeskogel (3291 m),47.13638889,12.31194444
Schlieferspitze (3290 m),47.12250000,12.24333333
2Aig.tte / L'Asti (3287 m),44.69138889,7.02666667
Petzeck (3283 m),46.94805556,12.80472222
Pta di Pietra Rossa (3283 m),46.32472222,10.43750000
Ritzlihorn (3282 m),46.63222222,8.25888889
Roter Knopf (3281 m),46.97861111,12.73944444
Piz Fliana (3281 m),46.82722222,10.10861111
Pta Rognosa di Sestriere (3280 m),44.93472222,6.93111111
Pizzo Dosdè (3280 m),46.41000000,10.22583333
Pizzo Tambo / Tambohorn (3279 m),46.49694444,9.28333333
Hohe Weiße (3279 m),46.74555556,11.03722222
Habicht (3277 m),47.04361111,11.28972222
Gsallkopf (3277 m),47.03777778,10.80500000
Basòdino (3272 m),46.41138889,8.46861111
Helsenhorn (3272 m),46.30472222,8.19166667
Pte d'Archeboc (3272 m),45.58361111,6.98027778
Östliche Feuerstein (3268 m),46.97166667,11.24444444
Clariden (3267 m),46.84194444,8.87138889
Piz Üertsch (3267 m),46.59638889,9.83638889
Antelao (3264 m),46.45250000,12.26055556
Scima da Saoseo (3264 m),46.38555556,10.15805556
Piz Languard (3262 m),46.48833333,9.95638889
Piz Forbesch (3262 m),46.52027778,9.55916667
Dents du Midi: Haute Cime (3257 m),46.16111111,6.92333333
Hasenöhrl (3257 m),46.54444444,10.85861111
Gross Düssi / Piz Git (3256 m),46.79166667,8.82750000
Hocharn (3254 m),47.07611111,12.93722222
Piz Tschütta / Stammerspitz (3254 m),46.90361111,10.34305556
Sasseneire (3254 m),46.13861111,7.52527778
Ankogel (3252 m),47.05111111,13.24916667
Cavistrau / Brigelser Hörner (3252 m),46.78444444,8.97388889
Rauhkofel (3251 m),47.07611111,12.09194444
Großer Hornkopf (3251 m),46.96722222,12.77888889
Wildhorn (3248 m),46.35583333,7.36222222
Péne Blanche (3248 m),45.61888889,7.42694444
Ringelspitz (3247 m),46.89833333,9.34305556
Berrio Blanc (3247 m),45.75305556,6.89777778
Piz Ot (3246 m),46.54333333,9.81027778
Wasenhorn / Pta Terrarossa (3246 m),46.26638889,8.08555556
Pta Painale (3246 m),46.25666667,9.97388889
Platthorn (3246 m),46.16638889,7.86111111
Tofana di Mezzo (3244 m),46.55111111,12.06555556
Hohe Fürleg (3244 m),47.14166667,12.36277778
Piz Bacun (3244 m),46.34222222,9.68222222
Wildstrubel (3243 m),46.40027778,7.52861111
Tête de Soulaure / Pic Félix Neff (3243 m),44.76250000,6.41500000
Hochschober (3242 m),46.94250000,12.69833333
Titlis (3238 m),46.77194444,8.43777778
Grand Golliat (3238 m),45.85916667,7.10166667
Becca du Merlo (3237 m),45.84388889,7.47055556
Hoher Seeblaskogel (3235 m),47.09555556,11.07472222
Pic des Houerts (3235 m),44.58777778,6.76722222
Ofenhorn / Pta d'Arbola (3235 m),46.38666667,8.31861111
Großer Muntanitz (3232 m),47.07361111,12.58916667
Le Péouvou (3232 m),44.63027778,6.88361111
Corno di Dosdè (3232 m),46.40777778,10.16972222
Hoher Riffler (3231 m),47.08111111,11.70444444
Augstenberg / Piz Blaisch Lunga (3230 m),46.86444444,10.20388889
Piz Vadret (3229 m),46.68694444,9.96277778
Grand Galibier (3228 m),45.06388889,6.43416667
Tofana di Rozes (3225 m),46.53694444,12.05111111
Hintere Stangenspitze (3225 m),47.05722222,11.97611111
Monte Gavia (3223 m),46.35416667,10.47250000
Rocca Bernauda / Roche Bernaude (3222 m),45.10138889,6.62750000
Monte Cristallo (3221 m),46.57527778,12.20055556
Monte Civetta (3220 m),46.38000000,12.05333333
Tour Sallière (3220 m),46.12694444,6.92472222
Vorderes Plattenhorn: Ostgipfel (3220 m),46.81000000,10.03305556
Vogelberg (3218 m),46.47833333,9.06527778
Monte del Forno (3214 m),46.33833333,9.72472222
Bec de l'Âne (3213 m),45.61555556,6.98388889
Le Métailler (3213 m),46.10388889,7.36027778
Piz Medel (3211 m),46.61833333,8.91111111
Scherbadung / Pizzo Cervandone (3211 m),46.32416667,8.22305556
Diablerets (3210 m),46.30388889,7.18888889
Gran Vernel (3210 m),46.44250000,11.83222222
Piz Timun / Pizzo d'Emet (3209 m),46.46694444,9.40944444
Piz Cambrialas (3208 m),46.78944444,8.85194444
Pic du Thabor (3207 m),45.11861111,6.56222222
Hocheiser (3206 m),47.15638889,12.67333333
Glödis (3206 m),46.96111111,12.72611111
Pte Haute de Mary (3206 m),44.57555556,6.89472222
Pta Sorapiss (3205 m),46.50694444,12.21166667
Piz Sesvenna (3204 m),46.70583333,10.40277778
Kitzsteinhorn (3203 m),47.18805556,12.68777778
Schwarzhorn (3201 m),46.21666667,7.75666667
Mastaunspitze (3200 m),46.69361111,10.80250000
Piz Vadret (3199 m),46.50888889,9.95083333
Gross Spannort (3198 m),46.78666667,8.52444444
Dreiländerspitze (3197 m),46.85083333,10.14472222
Ptes de Pierre Brune (3196 m),45.37805556,6.85694444
Mont Tondu (3196 m),45.76388889,6.75555556
Bortelhorn / Pta del Rebbio (3193.6 m),46.29472222,8.12527778
Rocca Blancia (3193 m),44.49916667,6.86472222
Cima Vezzana (3192 m),46.28972222,11.83027778
Pizzo Rotondo (3192 m),46.51750000,8.46611111
Hübschhorn I (3192 m),46.23694444,8.05527778
Scopi (3190 m),46.57166667,8.83000000
Löffelspitze (3190 m),47.01750000,12.16444444
Spechhorn / Pizzo d'Antigine (3189 m),46.01222222,8.00111111
Gleirscher Fernerkogel (3189 m),47.11416667,11.06361111
Piz Surlej (3188 m),46.45333333,9.84305556
Gross Windgällen (3187 m),46.80722222,8.73222222
Becca Tey (3186 m),45.58611111,7.09472222
Mont Glacier (3185 m),45.63138889,7.53972222
Langkofel / Saslonch (3181 m),46.52500000,11.73527778
Piz Murtaröl (3180 m),46.57027778,10.28750000
Piz Tasna (3179 m),46.85916667,10.25222222
Piz Pisoc (3173 m),46.74444444,10.27944444
Corn da Tinizong / Tinzenhorn (3173 m),46.61166667,9.67111111
Pte de Paumont / Cima del Vallone (3171 m),45.13944444,6.72833333
Großer Fensterlekofel (3171 m),46.89222222,12.04305556
Pic du Clapier du Peyron (3169 m),44.93722222,6.07694444
Hoher Riffler (3168 m),47.11611111,10.37083333
Monte Pelmo (3168 m),46.41944444,12.13500000
Piz Tavrü (3168 m),46.67916667,10.29611111
Piz Vial (3168 m),46.63194444,8.96916667
Piz Plavna Dadaint (3167 m),46.70861111,10.22361111
Piz Albris (3166 m),46.46416667,9.96333333
Piz Lagrev (3165 m),46.44583333,9.72277778
Piz Quattervals (3165 m),46.62722222,10.09500000
Tête de Sautron /Monte Sautron (3165 m),44.48666667,6.87750000
Rosa dei Banchi (3164 m),45.57722222,7.53250000
Vieux Chaillol (3163 m),44.73611111,6.19055556
Pizzo Stella (3163 m),46.38166667,9.42138889
Pta Clairy (3162 m),45.24416667,6.87305556
Piz Mitgel (3159 m),46.61416667,9.64666667
Hausstock (3158 m),46.87444444,9.06555556
Monte Vallecetta (3156 m),46.41194444,10.40027778
Tête de Vautisse (3156 m),44.70138889,6.48583333
Pic Ouest de Combeynot (3155 m),45.01222222,6.41111111
Piz Prüna (3153 m),46.48722222,9.98722222
Piz Boè (3152 m),46.50888889,11.82805556
Piz Popena (3152 m),46.57638889,12.20750000
Cima Brenta (3151 m),46.17944444,10.89972222
Piz Terri (3149 m),46.60000000,9.03416667
Becs de Bosson (3149 m),46.16777778,7.51805556
Kuchenspitze (3148 m),47.04861111,10.23000000
Zillerplattenspitze (3148 m),47.10416667,12.12972222
Pfroslkopf (3148 m),46.97777778,10.68916667
Croda Rossa / Hohe Gaisl (3146 m),46.63472222,12.14361111
Flüela Schwarzhorn (3146 m),46.73583333,9.94166667
Mont Raffrey (3146 m),45.64777778,7.51083333
Piz Mundin (3146 m),46.92527778,10.43083333
Dreischusterspitze (3145 m),46.66888889,12.31722222
Napfspitze (3144 m),47.06000000,12.03972222
Piz Tea Fondada / Monte Cornaccia (3144 m),46.54944444,10.30805556
Cime du Gélas / Monte Gelàs (3143 m),44.12305556,7.38472222
Jochköpfl (3143 m),46.92750000,11.10777778
Monte Cassa del Ferro (3140 m),46.57861111,10.20166667
Cima Tosa (3140 m),46.15527778,10.87055556
Cime Redasco (3139 m),46.36944444,10.30777778
Gross Ruchen (3138 m),46.81027778,8.77472222
Durreck (3135 m),46.96111111,12.02888889
Wilde Kreuzspitze (3135 m),46.91250000,11.59333333
Großer Friedrichskopf (3134 m),46.95777778,12.82861111
Hinter Schloss (3133 m),46.80250000,8.52694444
Pizzo Filone (3133 m),46.45750000,10.16333333
Oldenhorn (3132 m),46.32916667,7.22166667
Mont Chaberton (3131 m),44.96472222,6.75166667
Piz Duan (3131 m),46.37527778,9.58333333
Pte Léchaud (3128 m),45.73361111,6.81416667
Grohmannspitze (3126 m),46.51055556,11.73361111
Piz Schumbraida (3125 m),46.54277778,10.33833333
Fanellhorn (3124 m),46.54777778,9.13055556
Piz Nuna (3123 m),46.72333333,10.15444444
Schareck (3123 m),47.04138889,13.01750000
Groß Seehorn (3122 m),46.88777778,10.03250000
Piz Aul (3121 m),46.62277778,9.12500000
Piz da l'Acqua (3118 m),46.61111111,10.13888889
Grand Pinier (3117 m),44.72361111,6.40166667
Schermerspitze (3116 m),46.88777778,11.08444444
Grand Queyras (3114 m),44.71555556,6.95194444
Luibiskogel (3110 m),47.04972222,10.90416667
Monte Servin (3108 m),45.26472222,7.19972222
Krönten (3108 m),46.78222222,8.56944444
Gletscherhorn (3107 m),46.38750000,9.56055556
Pizz Gallagiun / Galleggione (3107 m),46.36694444,9.48777778
Ochsner (3107 m),47.04388889,11.81555556
Tête de Moïse (3104 m),44.44055556,6.93500000
Piz la Stretta / Monte Breva (3104 m),46.47666667,10.04472222
Große Ohrenspitze (3101 m),46.90694444,12.17750000
Piz Segnas (3099 m),46.90777778,9.23972222
Mont Ouille (3090 m),45.73166667,6.86638889
Lasörling (3098 m),46.97583333,12.35527778
Pte des Cerces (3098 m),45.06555556,6.48833333
Pic des Souffles (3098 m),44.86500000,6.13333333
Monte Matto (3097 m),44.22500000,7.25638889
Pflerscher Tribulaun (3097 m),46.98527778,11.33916667
Blockkogel (3097 m),47.08527778,10.88055556
Piz Giuv / Schattig Wichel (3096 m),46.70194444,8.69250000
Mont Buet (3096 m),46.02472222,6.85277778
Zwölferkofel / Croda dei Toni (3094 m),46.61916667,12.35972222
Elferkofel / Cima Undici (3092 m),46.63638889,12.37833333
Racherin (3092 m),47.08111111,12.79444444
Crête de Chambave (3090 m),45.80555556,7.03861111
Tête de la Courbe (3089 m),44.49777778,6.82333333
Vesulspitze (3089 m),47.00166667,10.34916667
Monte Forcellina (3087 m),46.46638889,10.19861111
Hohe Villerspitze (3087 m),47.10666667,11.16555556
Flüela Wisshorn (3085 m),46.76222222,9.96666667
Cima da Lägh / Cima di Lago (3083 m),46.37638889,9.46111111
Zwieselbacher Rosskogel (3081 m),47.16333333,11.04805556
Fundusfeiler (3079 m),47.11222222,10.87027778
Chüealphorn (3078 m),46.68527778,9.90527778
Mont Néry / Neryschthuare (3076 m),45.71583333,7.82000000
Großer Hafner (3076 m),47.07000000,13.40083333
Pic de Parières (3076 m),44.77944444,6.24083333
Piz Starlex (3075 m),46.66277778,10.39250000
Piz Sena (3075 m),46.35305556,10.11000000
Bristen (3073 m),46.73694444,8.68111111
Wildkarspitze (3073 m),47.17250000,12.13916667
Pizzo Campo Tencia (3072 m),46.42972222,8.72611111
Chüebodenhorn (3070 m),46.50805556,8.45305556
Tête de la Cassille (3069 m),45.04388889,6.49944444
La Meyna (3067 m),44.48111111,6.85861111
Geltenhorn (3065 m),46.34638889,7.33444444
Cunturines / Conturines (3064 m),46.57583333,11.97777778
Hoher Prijakt (3064 m),46.91555556,12.71277778
Pte des Rochers Charniers (3063 m),44.98777778,6.73555556
Hoch Ducan (3063 m),46.68944444,9.85138889
Mont Fallère (3061 m),45.77555556,7.19416667
Pizzo Gallina (3061 m),46.49472222,8.39194444
Seeköpfe (3061 m),47.04444444,10.26750000
Piz Grisch (3060 m),46.53111111,9.47277778
Rosenspitze (3049 m),46.98833333,12.25444444
Grand Queyron (3060 m),44.84277778,7.00166667
Grabspitze (3059 m),46.93861111,11.61444444
Monte Vago (3059 m),46.44083333,10.07888889
Sasso Vernale (3058 m),46.41888889,11.84055556
Bruschghorn (3056 m),46.63111111,9.30666667
Patteriol (3056 m),47.04416667,10.18750000
Aig des Corneillets (3055 m),45.32250000,6.66138889
Innere Wetterspitze (3053 m),46.99638889,11.24638889
Piz Forun (3052 m),46.65527778,9.86500000
Grand Muveran (3051 m),46.23722222,7.12611111
Mont Pelat (3051 m),44.26500000,6.70583333
Pizzo Coca (3050 m),46.07166667,10.01138889
Piz Minor (3049 m),46.45111111,10.02833333
Gross Lohner (3049 m),46.46194444,7.60000000
Le Rochail (Pte de Malhaubert) (3049 m),44.97527778,6.03250000
Aig du Fruit (3048 m),45.35555556,6.63138889
Grand Argentier / Pta Nera (3046 m),45.12222222,6.65861111
Grand Bérard (3046 m),44.44944444,6.65972222
Piz Murtera (3044 m),46.77527778,10.04027778
Gross Wendenstock (3042 m),46.76166667,8.38027778
Monte Albergian (3041 m),45.00750000,6.99277778
Piz Gannaretsch (3040 m),46.61194444,8.78666667
Alperschällihorn (3039 m),46.58666667,9.30666667
Pta Scais (3039 m),46.06861111,9.98444444
Bric Ghinivert (3037 m),44.95138889,6.99111111
Parseierspitze (3036 m),47.17444444,10.47833333
Hexenkopf (3035 m),47.02111111,10.46944444
Piz Umbrail (3033 m),46.55083333,10.41444444
Tête de Siguret (3032 m),44.44166667,6.78833333
Pizzo Ligoncio (3032 m),46.23888889,9.54777778
Becca di Vlou (3032 m),45.69166667,7.79222222
Piz S-chalembert (3031 m),46.80083333,10.41333333
Mont TénibreTenibres (3031 m),44.28388889,6.97222222
Piz Cotschen (3031 m),46.81305556,10.17694444
Piz Por (3028 m),46.50944444,9.38416667
Bündner Vorab (3028 m),46.87388889,9.15666667
Corno di Ban (3028 m),46.41777778,8.36111111
Zehner / Sas dales Diesc (3026 m),46.62222222,11.96055556
Monte Politri (3026 m),44.99111111,7.01861111
Furchetta / Furcheta  (3025 m),46.61222222,11.77333333
Sas Rigais  (3025 m),46.60916667,11.76666667
Piz Corbet (3025 m),46.37972222,9.28027778
Corno Bussola / M de Boussolaz (3024 m),45.79555556,7.73611111
Wendenhorn (3023 m),46.75388889,8.44361111
Wurmaulspitze (3022 m),46.91388889,11.63777778
Pte de la Vallaisonnay (3020 m),45.45805556,6.81777778
Pic du Mas de la Grave (3020 m),45.12083333,6.24611111
Cimet (3020 m),44.29000000,6.70500000
Viso Mozzo (3019 m),44.67472222,7.11000000
Piz Blas (3019 m),46.57722222,8.72805556
Gamspleisspitze (3015 m),46.93166667,10.24194444
Hochreichkopf (3010 m),47.17027778,10.96972222
Cima dell'Uomo (3010 m),46.40611111,11.80833333
Monte Giove (3009 m),46.36138889,8.38805556
Acherkogel (3008 m),47.18916667,10.95666667
Monte Avic (3007 m),45.67694444,7.55472222
Älplihorn (3006 m),46.71083333,9.82583333
Ritterkopf (3006 m),47.10250000,12.94944444
Furgler (3004 m),47.04027778,10.51222222
Kesselkogel / Catinaccio d'Antermoia (3002 m),46.47444444,11.64361111
Pizzas d'Anarosa / Grauhörner (3002 m),46.59888889,9.31583333
Gigalitz (3001 m),47.05777778,11.89111111
Große Zinne / Cima Grande di Lavaredo (2999 m),46.61888889,12.30277778
Pizzo Centrale (2999 m),46.57805556,8.61500000
Cima Falkner (2999 m),46.19333333,10.90472222
Piz Beverin (2998 m),46.65250000,9.35777778
Pic d'Artsinol (2998 m),46.11500000,7.42694444
Bric Bouchet /Bric Bucie (2997 m),44.82194444,7.02388889
Hoher Dachstein (2995 m),47.47527778,13.60555556
Roignais (2995 m),45.64305556,6.68888889
Rote Säule (2994 m),47.14666667,12.44388889
Le Mourre Froid (2993 m),44.63833333,6.40027778
Grand Parpaillon (2990 m),44.49388889,6.65194444
Mittler Fanis / Fanis di Mezzo (2989 m),46.55138889,12.01416667
Felber Tauernkogel (2988 m),47.15777778,12.48388889
Piz de la Lumbreida (2983 m),46.48111111,9.22527778
Cima Bagni (2983 m),46.61527778,12.41027778
Pala di San Martino (2982 m),46.25361111,11.85083333
Rosengartenspitze / Cima Catinaccio (2981 m),46.45472222,11.62083333
Aroser Rothorn (2980 m),46.73777778,9.61388889
Ròthòre / Corno Rosso (2979 m),45.76694444,7.88027778
La Tsavre (2978 m),45.91555556,7.12944444
Grand Pic de Belledonne (2977 m),45.17083333,5.99166667
Pic de Colle Blanche (2975 m),44.75333333,6.17250000
Monte Redival (2973 m),46.30861111,10.61416667
Tsa at a l'Etsena / Chateleysine (2971 m),45.80138889,7.39972222
Cima Ovest / Westliche Zinne (2973 m),46.61861111,12.29722222
Piz Curvér (2972 m),46.60333333,9.49722222
Wildgrat (2971 m),47.14055556,10.82666667
Schilthorn (2970 m),46.55750000,7.83472222
Haut de Cry (2969 m),46.24027778,7.19500000
Grieshorn (2969 m),46.45138889,8.39305556
Dent de Morcles (2969 m),46.19916667,7.07555556
Piz Daint (2968 m),46.61861111,10.29083333
Neuner / Sas dles Nü (2968 m),46.63027778,11.98111111
Cima del Duca (2968 m),46.28777778,9.79611111
Serottini (2967 m),46.29083333,10.34777778
Schober (2967 m),47.03444444,13.46833333
Haunold (2966 m),46.68861111,12.27750000
Schesaplana (2965 m),47.05361111,9.70750000
Aig du Belvédère (2965 m),45.98777778,6.87361111
Reißeck (2965 m),46.94722222,13.36444444
Monte Tagliaferro (2964 m),45.87250000,7.97083333
Piz Turettas (2963 m),46.58694444,10.33472222
Pizzo Lucendro (2963 m),46.53888889,8.51944444
Zugspitze (2962 m),47.42111111,10.98527778
Weiße Spitze (2962 m),46.87194444,12.35777778
Rienzenstock (2962 m),46.68305556,8.63500000
Marchhorn / Pta del Termine (2962 m),46.44861111,8.46250000
Tête de l'Estrop (2961 m),44.28666667,6.50583333
Cima Brenta Alta (2961 m),46.16027778,10.89638889
Piz Lagalb (2959 m),46.43166667,10.02361111
Cima Giner (2957 m),46.23722222,10.73250000
Piz Miez (2956 m),46.65472222,8.91666667
Tête de L'Enchastraye / Enciastraia (2954 m),44.36750000,6.88833333
Torent / Torrone Alto (2952 m),46.34361111,9.07111111
Brunnistock (2952 m),46.84777778,8.55000000
Crasta Mora (2952 m),46.57138889,9.86805556
Bättlihorn (2951 m),46.33250000,8.09388889
Corni di Nefelgiú (2951 m),46.39555556,8.37944444
Hochgrabe (2951 m),46.84888889,12.42166667
Crête de Lacha (2950 m),45.09722222,6.45944444
Asta Soprana (2950 m),44.20333333,7.31333333
Piz Tomül / Wissensteinhorn (2946 m),46.62333333,9.22833333
Piz Cavel (2946 m),46.65583333,9.01972222
Einshorn (2944 m),46.51611111,9.23027778
Gölbner (2943 m),46.82416667,12.50500000
Hochkönig (2941 m),47.42027778,13.06250000
Cime de la Condamine (2940 m),44.89250000,6.51972222
Gross Schinhorn / Pta di Valdeserta (2939 m),46.36111111,8.26083333
Pte de la Louïe Blanche (2939 m),45.66111111,6.91472222
Pizzo del Ramulazz S (2939 m),46.39666667,9.09277778
Monte Unghiasse (2939 m),45.41611111,7.29500000
Pic de Chabrières  (2938 m),44.57055556,6.62361111
Mont / Testa Malinvern (2938 m),44.19888889,7.18944444
Cime di Plator (2937 m),46.51500000,10.27055556
Pietra Grande (2937 m),46.23138889,10.89583333
Monte Gruf (2936 m),46.28611111,9.50583333
Mont du Grand Capelet (2935 m),44.07833333,7.42750000
Cimon del Froppa (2932 m),46.50722222,12.34055556
Monte Pettini (2932 m),46.53611111,10.22750000
Bärenhorn (2929 m),46.57555556,9.23194444
Tête du Pelvas/Monte Palavas (2929 m),44.79000000,6.99972222
Rosställispitz (2929 m),46.78916667,9.99361111
Schwarzhorn (2928 m),46.68611111,8.07555556
Rocher Blanc (2928 m),45.24166667,6.10722222
Badus / Six Madun (2928 m),46.62250000,8.66361111
Tête des Lauzières (2928 m),44.87416667,6.52833333
Vollandspitze (2928 m),47.01861111,10.17666667
Eggishorn (2927 m),46.43138889,8.09416667
Cima Bastioni Sud (2926 m),46.48527778,12.26777778
Pizzo del Diavolo della Malgina (2926 m),46.08472222,10.04666667
Edlenkopf (2923 m),47.13638889,12.92638889
Mährenhorn (2923 m),46.69166667,8.31083333
Birkenkofel (2922 m),46.68083333,12.25666667
Mont Revic (2922 m),45.68916667,7.56444444
Hochgasser (2922 m),47.15055556,12.52194444
Aig du Grand Fond (2920 m),45.66638889,6.67083333
Monte Ciorneva (2918 m),45.26833333,7.26027778
Mulleter Seichenkopf (2918 m),46.91527778,12.83138889
Corno di Flavona (2918 m),46.24555556,10.89694444
Cima Bel Pra (2917 m),46.48444444,12.24111111
Dent Favre (2917 m),46.21027778,7.10388889
Pizzo del Diavolo di Tenda (2916 m),46.04527778,9.90805556
Pte Côte de l'Âne (2916 m),44.24444444,6.80472222
Maresenspitz (2916 m),47.00416667,13.23027778
L'Aupillon (2916 m),44.44888889,6.57861111
Glärnisch (2915 m),46.99500000,8.99527778
Pflunspitze (2912 m),47.07944444,10.13277778
Cristallina (2912 m),46.46472222,8.53694444
Beco Alto del Piz (2912 m),44.29888889,6.98083333
Monte Torena (2911 m),46.08833333,10.10305556
Pic du Béal Traversier (2910 m),44.75694444,6.68944444
Aig de Cédéra (2909 m),44.73861111,6.28472222
Grande Séolane (2909 m),44.33777778,6.54638889
Puy Gris (2908 m),45.29583333,6.14611111
Pizzo Diei (2906 m),46.26472222,8.23805556
Les Grandes Aigs (2905 m),45.70555556,6.78500000
Signal du Lauvitel E (2904 m),44.93888889,6.04750000
Pic de Peyre Eyraute (2903 m),44.82277778,6.63055556
Piz Combul (2901 m),46.22972222,10.04388889
Grand Chavalard (2899 m),46.17861111,7.11305556
Becca di Nona (2898 m),45.83972222,7.41611111
Le Pouzenc (2898 m),44.45916667,6.51694444
Monte Frisozzo (2897 m),46.02444444,10.44916667
Holzgauer Wetterspitze (2895 m),47.20638889,10.36944444
Reinhart (2891 m),47.04222222,12.17972222
Regenstein (2891 m),46.86055556,12.49055556
Monte Orsiera (2890 m),45.06388889,7.10722222
Schwarzhorn / Piz Gren (2890 m),46.67750000,9.02277778
Monte Re di Castello (2889 m),46.02166667,10.48333333
Vorderseespitze (2889 m),47.18472222,10.36694444
Napfspitze (2888 m),46.93694444,11.73944444
Schildflue (2887 m),46.88055556,9.95638889
Wissigstock (2887 m),46.84555556,8.50666667
Lizumer Reckner (2886 m),47.14388889,11.63083333
Guggernüll (2886 m),46.52388889,9.27138889
Le Chevalier (2886 m),44.33055556,6.75916667
Pizzo Recastello (2886 m),46.05694444,10.07555556
Rietzer Grießkogel (2884 m),47.24583333,11.05944444
Monteaviolo (2881 m),46.18527778,10.39861111
Pte de la Terrasse (2881 m),45.67083333,6.72472222
Piz Fess (2880 m),46.72750000,9.28861111
Cima della Sasse (2878 m),46.35694444,12.06444444
Moiazza Sud (2878 m),46.33833333,12.05805556
Pte de Cloutzau (2878 m),45.00722222,6.74750000
Peitlerkofel / Sas de Pütia (2875 m),46.65888889,11.82000000
Eisentälispitze (2875 m),46.91333333,9.96250000
Schwalbenkofel (2873 m),46.65222222,12.27027778
Monte Carbonè (2873 m),44.16027778,7.43055556
Monte Agnèr (2872 m),46.27638889,11.95277778
Mont Bégo (2872 m),44.07388889,7.45083333
Tête des Vieux  (2871 m),45.75888889,6.93500000
Grand Aréa (2869 m),44.98000000,6.57333333
Kolbenspitze (2868 m),46.77277778,11.14777778
Pta Cornour (2867 m),44.85055556,7.09305556
Tête de Gaulent (2867 m),44.71888889,6.52555556
Nufenenstock (2866 m),46.46694444,8.38833333
Rocher de Plassa (2865 m),45.37305556,6.68916667
Triglav (2864 m),46.37805556,13.83694444
Pala di Meduce (2864 m),46.50194444,12.29750000
Poncione di Braga (2864 m),46.43416667,8.54277778
Wandfluhhorn / Pizzo Biela (2863 m),46.34472222,8.46416667
Hochgolling (2862 m),47.26611111,13.76111111
Cima de Barna (2862 m),46.42055556,9.26361111
Le Taillefer (2857 m),45.03972222,5.92444444
Gstellihorn (2855 m),46.66222222,8.17472222
Piz di Sassiglion (2855 m),46.32277778,10.11250000
Petite Séolane (2854 m),44.35750000,6.53000000
Cima Ciantiplagna (2849 m),45.07222222,7.01333333
Croda Granda (2849 m),46.24861111,11.92861111
Cima d'Asta (2847 m),46.17666667,11.60527778
Pta Nera (2847 m),46.51638889,12.19166667
Cima del Desenigo (2845 m),46.20166667,9.56166667
Pizol (2844 m),46.95916667,9.38666667
Punta Charrà / Sommet du Charra (2844 m),45.02138889,6.71027778
Weissfluh (2843 m),46.83500000,9.79527778
Pic de Beaudouis (2843 m),44.83638889,6.69444444
Schneekarkopf (2843 m),47.14111111,12.03555556
Cornone di Blumone (2843 m),45.95472222,10.45583333
Latemar (Diamantiditurm) (2842 m),46.38111111,11.57527778
Cima di Gana Bianca (2842 m),46.47138889,8.99222222
Kirchdachspitze (2840 m),47.06722222,11.34194444
Dürrenstein (2839 m),46.67250000,12.18527778
Cima Cadin di San Lucano (2839 m),46.57750000,12.28805556
Grand Cheval de Bois (2838 m),44.29250000,6.63388889
Kärlskopf (2836 m),46.88861111,12.23611111
Tête du Clotonnet (2835 m),44.84277778,6.10111111
Gamskarlspitz (2833 m),47.03694444,13.16250000
Cheval Noir (2832 m),45.42194444,6.41388889
Rocca la Meja (2831 m),44.39833333,7.06888889
Drei Türme / Drusentürme (2830 m),47.02472222,9.81000000
Aig de Venosc (2830 m),44.96805556,6.08722222
Grand Pic de la Lauzière (2829 m),45.45916667,6.36666667
Pirchkogel (2828 m),47.23194444,10.99916667
Große Schlenkerspitze (2827 m),47.24888889,10.61527778
Graunock (2827 m),46.88611111,11.78888889
Cime de Bolofré (2827 m),44.22305556,6.83527778
Madrisahorn (2826 m),46.93111111,9.87222222
Kalkwand (2826 m),47.15388889,11.66166667
Grand Perron des Encombres (2824 m),45.29777778,6.45027778
Tête de l'Hivernet (2824 m),44.62000000,6.45305556
Hoher Herd (2824 m),47.19944444,12.45000000
Hochmaderer (2823 m),46.92861111,10.02861111
Le Bellachat (2822 m),45.37972222,6.39694444
Riedbock  (2822 m),46.92861111,13.35666667
Monfandì (2820 m),45.52194444,7.61944444
Sulzfluh (2818 m),47.01250000,9.83972222
Mont Mounier (2817 m),44.15472222,6.97250000
Dosso Resaccio (2814 m),46.50111111,10.22000000
Sass Maòr (2814 m),46.23250000,11.84805556
Vallüla (2813 m),46.93750000,10.11250000
Cima delle Lose (2813 m),44.37222222,6.92500000
Frate della Meia (2812 m),45.75888889,7.92416667
Seekofel / Sas dla Porta (2810 m),46.67500000,12.07250000
Valluga (2809 m),47.15750000,10.21305556
Monte Campellio (2809 m),46.05138889,10.47722222
Peiderspitze  (2808 m),47.21972222,11.12166667
Seejoch  (2808 m),47.22444444,11.10305556
Pizzo Castello (2808 m),46.41555556,8.56527778
Pic du Frêne (2807 m),45.35250000,6.19833333
Haldensteiner Calanda (2805 m),46.90000000,9.46750000
Cima de Gagela (2805 m),46.38416667,9.17472222
Tête à l'Âne (2804 m),45.98722222,6.77972222
Corona di Redorta (2804 m),46.37555556,8.73222222
Schlicker Seespitze (2804 m),47.14555556,11.27333333
Bös Fulen (2802 m),46.96722222,8.94583333
Cima di Ball (2802 m),46.24305556,11.84444444
Corno Mud (2802 m),45.88444444,7.96388889
Rollspitze (2800 m),46.94638889,11.50777778
Rosenjoch (2796 m),47.18000000,11.54333333
Col Bechei / Pareispitze (2794 m),46.60777778,12.04444444
Kärpf (2794 m),46.91666667,9.09333333
Drättehorn (2794 m),46.58222222,7.82388889
Pizzo Quadro (2793 m),46.29861111,8.41805556
Grand Armet (2792 m),44.98194444,5.93444444
Pta Ciamberline (2792 m),44.16555556,7.35805556
Grande Tête de l'Obiou (2790 m),44.77472222,5.83972222
Pizzo Marumo (2790 m),46.59833333,8.95944444
Muntejela de Senes (2787 m),46.67166667,12.01833333
Le Luisin (2786 m),46.12083333,6.97000000
Polinik (2784 m),46.89500000,13.15805556
Schrotkopf (2784 m),47.20888889,12.54055556
Grande Autane (2782 m),44.64916667,6.28777778
Hirzer (2781 m),46.73722222,11.27666667
Tiejer Flue (2781 m),46.78083333,9.73444444
Hohe Warte / Coglians (2780 m),46.60694444,12.88305556
Monte dei Corni (2779 m),45.57083333,7.63583333
Monte Cassorso (2776 m),44.41777778,7.01805556
Grun de Saint-Maurice (2775 m),44.81611111,6.05722222
Imster Muttekopf (2774 m),47.26722222,10.65166667
Pizzo del Sole (2773 m),46.52500000,8.76777778
Pta Lunella (2772 m),45.19722222,7.21638889
Große Sandspitze (2770 m),46.76638889,12.81194444
Madererspitze (2769 m),47.02500000,10.06972222
Fallesinspitze (2769 m),47.18138889,10.30027778
Hochsteinflache (2769 m),47.15888889,11.99777778
Hochplattig (2768 m),47.35305556,10.98861111
Il Madone  (2768 m),46.49194444,8.56694444
Dristner (2767 m),47.11333333,11.83944444
Schwarzkopf (2765 m),47.16694444,12.86083333
Schächentaler Windgällen (2764 m),46.88805556,8.79166667
Schwarzberg / Piz Nair (2764 m),46.60944444,8.67777778
Albristhorn (2763 m),46.49805556,7.48777778
Rotenkogel (2762 m),46.98000000,12.59888889
Rastkogel (2762 m),47.20416667,11.75111111
Pizzo Massari (2760 m),46.47583333,8.68333333
Dent de Barme (2759 m),46.13194444,6.84194444
Grand Ferrand (2758 m),44.72250000,5.81611111
Reeti / Rötihorn (2757 m),46.66500000,8.01166667
Ehrenspitze (2756 m),46.76388889,11.07777778
Roche de l'Abisse/Rocca dell'Abisso (2755 m),44.14361111,7.50500000
Cima di Cece (2754 m),46.26083333,11.68388889
Monte Telenek (2754 m),46.09250000,10.17916667
Jôf dal Montâs (2753 m),46.43583333,13.43361111
Untere Wildgrubenspitze (2753 m),47.16500000,10.12638889
Östliche Eisentalerspitze (2753 m),47.07972222,10.10000000
Pic de Valsenestre (2752 m),44.88666667,6.06750000
Pte Percée (2750 m),45.95555556,6.55611111
Birkkarspitze (2749 m),47.41111111,11.43777778
Alplerspitz / Mardatsch (2748 m),46.76166667,11.30111111
Sommet de La Frema (2747 m),44.15194444,6.69861111
Hochwildstelle (2747 m),47.33500000,13.83083333
Corno del Lago (2747 m),45.67083333,7.78305556
Hochwart (2746 m),46.79083333,11.31888889
Cima Bocche (2745 m),46.35416667,11.75222222
Jakobsspitze (2745 m),46.76305556,11.49166667
Sadnig (2745 m),46.94111111,12.98916667
Hochwanner (2744 m),47.39611111,11.05583333
Roteck (2742 m),47.23000000,13.85055556
Ärmighore (2742 m),46.54166667,7.71361111
Madom Gröss (2741 m),46.36666667,8.83111111
Cima Carnera (2741 m),45.85500000,7.97027778
Škrlatica (2740 m),46.43277778,13.82111111
Kasereck (2740 m),47.23750000,13.77166667
Schenadüi (2738 m),46.55250000,8.74861111
Spitzhorli (2737 m),46.26444444,7.98055556
Monte Zucchero (2735 m),46.35416667,8.71416667
Kaltwasserkarspitze (2733 m),47.40305556,11.45055556
Dremelspitze (2733 m),47.23500000,10.59583333
Pic des Cabottes (2732 m),45.24194444,6.06388889
Clot de la Cime (2732 m),44.81666667,6.72194444
Monte Borga (2731 m),46.09305556,10.20833333
Dzerbion /Monte Zerbion (2720 m),45.78833333,7.66388889
Le Grand Coin (2729 m),45.34611111,6.40222222
Kesselspitze (2728 m),47.10055556,11.36472222
Bergwerkskopf  (2728 m),47.22500000,10.60916667
Sas de Mezdi / La Mesola (2727 m),46.47194444,11.87750000
Pizzo di Claro (2727 m),46.29583333,9.05555556
Pizzo di Prata (2727 m),46.27750000,9.45555556
Großer Bettelwurf (2726 m),47.34416667,11.52000000
Hirzer (2725 m),47.21777778,11.66305556
Schmalzkopf (2724 m),46.93138889,10.53583333
Weiße Wand (2722 m),46.94583333,11.81361111
Hochwand (2719 m),47.35861111,11.01583333
Spitzkofel (2717 m),46.77222222,12.74333333
Serles (2717 m),47.12388889,11.38111111
Ortstock (2716 m),46.92527778,8.94805556
Valisera (2716 m),46.96083333,9.95583333
Cima Ambrizzola (2715 m),46.47916667,12.09805556
Colàc (2715 m),46.44138889,11.78250000
Watzmann (2713 m),47.55500000,12.92305556
Pizzo Straciugo (2713 m),46.13222222,8.12083333
Croda da Campo (2712 m),46.58944444,12.43416667
Weißeck (2711 m),47.16250000,13.39416667
Mont Saint-Sauveur (2711 m),44.16472222,7.13555556
Mont Gond (2710 m),46.28555556,7.26361111
Pic de Bure (2709 m),44.62666667,5.93500000
Hochkreuz (2709 m),46.81500000,13.07416667
Gsür (2708 m),46.51083333,7.51972222
Coston di Slavaci (2708 m),46.26222222,11.71694444
Cima dei Preti (2706 m),46.34250000,12.42083333
Penser Weißhorn (2705 m),46.80194444,11.39555556
Pizzo Montalto (2705 m),46.09750000,8.13305556
Rote Wand (2704 m),47.18638889,9.98500000
Monte Fraiteve (2702 m),44.97722222,6.86138889
Waldhorn (2702 m),47.29611111,13.81750000
Rotsandnollen (2700 m),46.80055556,8.34388889
Cima Iuribrutto (2697 m),46.35916667,11.76527778
Großer Lafatscher (2696 m),47.34555556,11.45277778
Monte Peralba (2694 m),46.62944444,12.71944444
Piz de Groven (2694 m),46.31833333,9.15916667
Grand Coyer (2693 m),44.10055556,6.69027778
Tête du Colonney (2692 m),45.97166667,6.69083333
Ilmspitze (2692 m),47.05722222,11.33027778
Große Kinigat / Monte Cavallino (2689 m),46.67527778,12.52444444
Piz Pian Grand (2689 m),46.41750000,9.15555556
Aigs de la Pennaz (2688 m),45.74500000,6.69944444
Hochfeind (2687 m),47.18722222,13.49500000
Schwabenalpenkopf (2687 m),46.64527778,12.28666667
Grand Mont (2686 m),45.63194444,6.53722222
Cima del Serraglio (2685 m),46.59277778,10.24222222
Deichselspitze (2684 m),47.27027778,13.82222222
Chapeau de Gendarme (2682 m),44.33833333,6.66583333
Leutascher Dreitorspitze (2682 m),47.40055556,11.12444444
Hochstadel (2681 m),46.76000000,12.85722222
Mosermandl (2680 m),47.20611111,13.39611111
Mangart (2679 m),46.43944444,13.65472222
Spullerschafberg (2679 m),47.17388889,10.07583333
Pta Tempesta (2679 m),44.42194444,7.13833333
Cima di Santa Maria (2678 m),46.21277778,10.95083333
Gaflunakopf (2676 m),47.06388889,10.13472222
Piz della Forcola (2675 m),46.31638889,9.29333333
Mont Pépoiri (2674 m),44.11083333,7.20277778
Mont Rougnous (2673 m),44.18416667,6.87388889
Elendberg (2672 m),47.28388889,13.74694444
Ballunspitze (2671 m),46.95527778,10.13500000
Stübele / Stubele (2671 m),46.46777778,10.93666667
Sas Ciampac / Ciampatsch (2671 m),46.56305556,11.83527778
Le Grand Miceau (2669 m),45.37111111,6.21222222
Monte Duranno  (2668 m),46.32888889,12.40277778
Südliche Sonnenspitze (2668 m),47.38666667,11.47777778
Jôf Fuart / Wischberg / Viš (2666 m),46.43055556,13.49138889
Les Avoudrues (2666 m),46.10111111,6.81305556
Monte Bruffione (2665 m),45.94222222,10.49138889
Monte Cernera (2664 m),46.46888889,12.05833333
Toblacher Pfannhorn (2663 m),46.78388889,12.28416667
Hohe Munde (2662 m),47.34777778,11.07194444
Grünstein (2661 m),47.34888889,10.92138889
Pte Rousse des Chambres (2660 m),46.11277778,6.82027778
Pizzo Giezza (2658 m),46.17916667,8.19666667
Piz Toissa (2657 m),46.61861111,9.52500000
Großer Krottenkopf (2656 m),47.31166667,10.35583333
Ilmenspitze /Cima degli Olmi (2656 m),46.48194444,10.96388889
Selbhorn (2655 m),47.44694444,12.96361111
Sommet du Guiau (2654 m),45.02000000,6.67361111
Faulkogel (2654 m),47.21611111,13.37250000
Schönfeldspitze (2653 m),47.45805556,12.93750000
Tullen (2653 m),46.65361111,11.77500000
Männliflue (2652 m),46.55138889,7.54638889
Hohes Licht (2651 m),47.28027778,10.27611111
Pta Marguareis (2650 m),44.17388889,7.68444444
Le Chenaillet (2650 m),44.90222222,6.74055556
Braunarlspitze (2649 m),47.22944444,10.06444444
Averau (2649 m),46.50083333,12.03694444
Jalovec (2645 m),46.42166667,13.67972222
Crête des Crousas (2645 m),44.72305556,6.66055556
Zimba (2643 m),47.09138889,9.78888889
Heiterwand (2639 m),47.31444444,10.73444444
Hocheck (2638 m),47.23611111,13.72416667
Kleiner Solstein (2637 m),47.30250000,11.32444444
Birnhorn (2634 m),47.47472222,12.73388889
Crêt du Rey (2633 m),45.60138889,6.59944444
Urbeleskarspitze (2632 m),47.33666667,10.46861111
Großstein (2632 m),47.23777778,10.49444444
Rüfispitze (2632 m),47.19111111,10.18222222
Monte Mongioie (2630 m),44.17500000,7.78555556
Munt Buffalora (2630 m),46.62694444,10.25000000
Ultner Hochwart (2627 m),46.51166667,10.99972222
Blutspitze / Steinkarspitze (2626 m),47.24972222,13.68583333
Monte Pradella (2626 m),45.99222222,9.85055556
Cima d'Auta Orientale (2624 m),46.40055556,11.88611111
Valschavielberge (2624 m),47.00944444,10.12666667
Le Rissiou (2622 m),45.18361111,6.06805556
Greifenberg (2618 m),47.28916667,13.78972222
Monte Stelle delle Sute (2616 m),46.21083333,11.53333333
Grande Balmaz (2616 m),45.89333333,6.49666667
Piz Cavradi (2614 m),46.63250000,8.69555556
Pizzo dell'Alpe Gelato (2613 m),46.24972222,8.44416667
Le Gros Têt (2613 m),45.07527778,6.23972222
Cima Bianca (2612 m),46.38777778,8.81250000
Monte le Stelière (2612 m),44.26583333,7.10722222
Foostock / Ruchen (2611 m),46.95666667,9.24472222
Monte Legnone (2609 m),46.09472222,9.41472222
Sommet d'Assan (2609 m),44.68555556,6.73611111
Mittlere Jägerkarspitze (2608 m),47.35361111,11.37583333
Hochkalter (2607 m),47.56944444,12.86666667
Cima del Rouss (2604 m),44.32111111,7.00000000
Campanile Ciastelin (2602 m),46.51083333,12.37722222
Becco di Mezzodì (2602 m),46.46666667,12.11444444
Schafseitenspitze (2602 m),47.10277778,11.55444444
Razor (2601 m),46.41194444,13.79194444
Monte Cabianca (2601 m),46.01000000,9.86694444
Monte Mars (2600 m),45.63333333,7.91527778
Silberpfennig (2600 m),47.08916667,13.04166667
Großer Knallstein (2599 m),47.32000000,13.97694444
Vorder Grauspitz (2599 m),47.05277778,9.58111111
Biberkopf (2599 m),47.27055556,10.23277778
Le Catogne (2598 m),46.05416667,7.11083333
Zellinkopf (2597 m),46.89416667,12.95138889
Großer Hundstod (2594 m),47.51250000,12.88666667
Roc du Bécoin (2594 m),45.49277778,6.66388889
Gametzalpenkopf (2594 m),46.68916667,12.10888889
Pizzo Paglia (2593 m),46.23166667,9.21916667
Monte Forno / Gorio (2593 m),46.29527778,8.32361111
Hochvogel (2592 m),47.37972222,10.43694444
Zwölferspitz (2592 m),46.66166667,12.72833333
Eggenkofel (2591 m),46.73861111,12.67805556
Rupprechtseck (2591 m),47.23944444,14.00138889
Kanin (2587 m),46.36000000,13.43833333
Monte Terza Grande (2586 m),46.52694444,12.62138889
Monte Cridola (2581 m),46.42638889,12.48666667
HochspitzVancomun (2581 m),46.65722222,12.66861111
Ruitelspitze (2580 m),47.25555556,10.44611111
Mont Triboulet (2578 m),44.20611111,6.86583333
Türchlwand (2577 m),47.15083333,13.03250000
Plose (Große Gabler) (2576 m),46.68972222,11.76305556
Stätzerhorn (2575 m),46.75583333,9.51222222
Cima delle Buse (2574 m),46.18611111,11.49805556
Pfannenstock (2573 m),46.96166667,8.91138889
Westlicher Johanneskopf (2573 m),47.21027778,10.02250000
Torrione dei Longerin (2571 m),46.62916667,12.56138889
Setsas (2571 m),46.51944444,11.95750000
Kanjavec (2569 m),46.36027778,13.80972222
Tête du Collier (2567 m),44.71722222,5.96416667
Maurerkopf (2567 m),46.71277778,12.03388889
Schiara (2565 m),46.23000000,12.18222222
Hinter Planitzer (2562 m),47.21777778,12.63694444
Grand Galbert (2561 m),45.09055556,5.95972222
Grintovec (2558 m),46.35694444,14.53611111
Kreuzjoch (2558 m),47.25138889,11.98277778
Monte Bo (2556 m),45.71416667,7.99888889
Wolayer Seekopf / Monte Capolago (2554 m),46.60611111,12.86083333
Pizzo Tre Signori (2554 m),46.01194444,9.52833333
Modeon del Buinz (2554 m),46.41666667,13.47111111
Namloser Wetterspitze (2553 m),47.32305556,10.64166667
Kirchlispitzen (2552 m),47.03888889,9.76944444
Tàmer Piccolo (2550 m),46.31055556,12.12194444
Concarena (Cima della Bacchetta) (2549 m),46.01083333,10.28000000
Monte Brentoni (2548 m),46.51277778,12.56583333
Le Tarent (2548 m),46.38222222,7.14750000
Monfalcon di Montanaia (2548 m),46.40444444,12.48611111
Sass de Mura (2547 m),46.16361111,11.92527778
Rosso di Ribia (2547 m),46.26111111,8.52972222
Prisojnik (2547 m),46.42527778,13.77000000
Hochnissl (2547 m),47.36722222,11.61805556
Les Aig.ttes (2547 m),45.18388889,6.12500000
Crest / Monte Cresto (2546 m),45.68083333,7.91000000
L'Aig Rouge (2545 m),45.04611111,6.64444444
Predigstuhl (2543 m),47.26194444,13.91138889
Monte Talvena (2542 m),46.26611111,12.15583333
Giferspitz (2542 m),46.45111111,7.35333333
Mohnenfluh (2542 m),47.23222222,10.10222222
Pöngertlekopf & Pfaffeneck  (2539 m),47.17416667,10.03444444
Östliche Karwendelspitze (2537 m),47.44500000,11.42194444
Pizzo Cavregasco (2535 m),46.23944444,9.27638889
Glogghüs (2534 m),46.76055556,8.26250000
Hochwang (2534 m),46.87416667,9.63305556
Pte de Comborsier (2534 m),45.61027778,6.51555556
Großer Widderstein (2533 m),47.28472222,10.12916667
Cima Quarazza (2530 m),46.12972222,11.57000000
Cima Coltorondo (2530 m),46.25583333,11.63805556
Gurpitscheck (2526 m),47.21083333,13.61472222
Gamskofel (2526 m),46.63083333,12.90083333
Mont Joly (2525 m),45.82611111,6.69305556
Magerrain (2524 m),47.03305556,9.22000000
Hocheisspitze (2523 m),47.54694444,12.84333333
Hoher Göll (2522 m),47.59416667,13.06777778
Presolana (2521 m),45.95666667,10.05527778
Monte delle Scale (2521 m),46.50250000,10.32666667
Tschuggen (2521 m),46.60027778,7.94972222
Hochjoch (2520 m),47.06611111,9.98805556
Dreispitz (2520 m),46.59277778,7.75972222
Steinwand / Creta Verde (2520 m),46.64277778,12.79222222
Cima di Bri (2520 m),46.30527778,8.88416667
Monte Seleron (2519 m),46.10000000,9.72888889
Großer Priel (2515 m),47.71694444,14.06333333
Chaiserstock (2515 m),46.92833333,8.72861111
Cima Busa Alta (2513 m),46.24972222,11.60944444
Glanderspitze (2512 m),47.14833333,10.66166667
Pizzo Arera (2512 m),45.93472222,9.81583333
Pizzo Alto (2512 m),46.07750000,9.45666667
Großes Ochsenhorn (2511 m),47.53833333,12.66083333
Villanderer Berg (2509 m),46.65861111,11.41888889
Mitterhorn (2506 m),47.54944444,12.62861111
Dormillouse (2505 m),44.40972222,6.38694444
Breithorn (2504 m),47.45694444,12.90277778
Cima di Pape / Cima di Sanson (2503 m),46.33444444,11.92805556
Piz Ledu (2503 m),46.23250000,9.32166667
Säntis (2502 m),47.24944444,9.34333333
Großer Pleißlingkeil (2501 m),47.22722222,13.49138889
Marchkopf (2499 m),47.25111111,11.80611111
Castello di Moschesin (2499 m),46.29722222,12.13277778
Monte Croce (2496 m),46.16944444,11.39222222
Mittlere Kreuzspitze (2496 m),47.33611111,10.59277778
Les Grands Moulins (2495 m),45.40722222,6.19833333
Wannig (2493 m),47.33694444,10.86222222
Pizzo Camino (2491 m),45.98166667,10.17750000
Fulen (2491 m),46.91861111,8.71472222
Viezzena (2490 m),46.33750000,11.67555556
Zanggen / Pala di Santa (2488 m),46.34583333,11.51194444
Creton di Clap Grant  (2487 m),46.52916667,12.67055556
Cima di Pinadee (2486 m),46.51333333,8.97694444
Grand Arc (2484 m),45.56666667,6.36472222
Étale (mountain) (2483 m),45.85000000,6.44777778
Monte Bertrand (2483 m),44.11777778,7.67527778
Rammelstein (2483 m),46.83444444,12.05305556
Hochkarspitze (2482 m),47.44750000,11.35055556
Rauchberg (2480 m),47.30416667,10.75888889
Monte Pramaggiore (2478 m),46.36500000,12.55333333
Monte Ziolera (2478 m),46.17194444,11.45500000
Spillgerte (2476 m),46.53666667,7.44666667
Rettelkirchspitze (2475 m),47.25972222,14.12777778
Bivare / Monte Bìvera (2474 m),46.44138889,12.64194444
Greim (2474 m),47.24777778,14.15166667
Monte Rinaldo (2473 m),46.59888889,12.65805556
Pierre Avoi (2473 m),46.11805556,7.20027778
Špik (2473 m),46.44861111,13.81444444
Rappenspitze (2472 m),47.23666667,10.19750000
Col Nudo (2471 m),46.22750000,12.40277778
Loreakopf (2471 m),47.35416667,10.77166667
Cime de l'Aspre (2471 m),44.17555556,6.80972222
Lungauer Kalkspitze (2471 m),47.27222222,13.62527778
Ochsenkopf  (2470 m),47.27527778,12.07888889
Salzachgeier  (2470 m),47.29361111,12.10361111
Sasso di Bosconero (2468 m),46.33638889,12.26861111
Cima Scanaiol (2467 m),46.21500000,11.76583333
Gamskarkogel (2467 m),47.16111111,13.15861111
Hauts-Forts (2466 m),46.16861111,6.77750000
Pizzo la Scheggia (2466 m),46.18416667,8.41527778
Creta Forata (2462 m),46.54250000,12.73583333
Silberspitze (2461 m),47.18416667,10.57277778
Mont Mirantin (2460 m),45.68416667,6.49944444
Pte de la Grande Journée (2460 m),45.66750000,6.50111111
Rauchkofel (2460 m),46.61944444,12.88333333
Cima dei Lasteri (2459 m),46.17694444,10.94833333
Große Bischofsmütze (2458 m),47.49388889,13.51111111
Gummfluh (2458 m),46.44055556,7.19500000
Sonnjoch (2457 m),47.41222222,11.60500000
Hohniesen (2454 m),46.57722222,7.58333333
Rumer Spitze (2454 m),47.32027778,11.42583333
Rocher Rond (2453 m),44.69750000,5.82944444
Gamsjoch (2452 m),47.41833333,11.54888889
Monte Bussaia (2451 m),44.21805556,7.46805556
Pomagagnon (2450 m),46.57388889,12.14027778
Cima Cadi (2449 m),46.22361111,10.29444444
Großer Bösenstein (2448 m),47.44333333,14.40444444
Spitzmauer (2446 m),47.69527778,14.06222222
Monte Spondone (2445 m),45.98055556,9.79472222
Kröndlhorn (2444 m),47.29888889,12.16472222
Monte Siera (2443 m),46.54916667,12.71083333
Eisenhut (2441 m),46.95194444,13.92888889
Mürtschenstock (2441 m),47.07000000,9.14416667
Großer Rosennock (2440 m),46.87750000,13.71250000
Schwarzhorn (2439 m),46.33472222,11.45472222
Pte Blanche (2438 m),45.99944444,6.45972222
Gufelstock (2436 m),47.02500000,9.14666667
Kraxenkogel (2436 m),47.25388889,13.35722222
Altmann (2435 m),47.23944444,9.37166667
Laugenspitze (2434 m),46.53472222,11.08611111
Seehorn (2434 m),46.18250000,8.11555556
Deneck (2433 m),47.29111111,14.05000000
Cornettes de Bise (2432 m),46.33250000,6.78472222
Mont de Grange (2432 m),46.26250000,6.78083333
Raz de Bec (2431 m),44.66805556,5.98805556
L'Ouillon (2431 m),45.24000000,6.21500000
Monte Azzarini (2431 m),46.05972222,9.64250000
Raucheck (2430 m),47.49916667,13.22666667
Laliderer Falk (2427 m),47.43500000,11.51916667
Monte Ferrante (2427 m),45.97472222,10.02861111
Sforniòi di Mezzo (2425 m),46.34861111,12.26722222
Großer Galtenberg (2424 m),47.33666667,11.97638889
Col della Croce (2423 m),46.16527778,11.63861111
Oberwölzer Schoberspitze (2423 m),47.28916667,14.16111111
L'Argentine (2422 m),46.27333333,7.13083333
Monte Cimon (2422 m),46.55138889,12.76305556
Cima di Capezzone (2421 m),45.94500000,8.20888889
Geierhaupt (2417 m),47.37472222,14.63638889
Monte Alto di Pelsa (2417 m),46.35583333,11.99972222
Ehrwalder Sonnenspitze (2417 m),47.36750000,10.92194444
Pizzo Erra (2417 m),46.44111111,8.89083333
Karhorn (2416 m),47.24805556,10.15111111
Hochreichart (2416 m),47.36333333,14.68194444
Hoh Brisen (2413 m),46.89750000,8.46583333
Crodon di Tiarfin (2413 m),46.46583333,12.59166667
Schafberg (2413 m),47.16916667,9.95138889
Sassolungo di Cibiana (2413 m),46.35888889,12.28277778
Bleikogel (2411 m),47.51416667,13.29833333
Grignone (2409 m),45.95333333,9.38750000
Cima di Pramper  (2409 m),46.29666667,12.16694444
Mont Charvin (2409 m),45.80250000,6.42000000
Kilnprein (2408 m),46.98527778,13.84277778
Monte Pezza (2408 m),46.40583333,11.92055556
Sasso Bianco (2407 m),46.41250000,11.95944444
Zirmebenjoch (2407 m),47.29388889,10.53833333
Monte San Lucano (2406 m),46.31083333,11.96000000
Erlspitze (2405 m),47.32000000,11.28555556
Cresta di Enghe (2405 m),46.52083333,12.63444444
Saile (2404 m),47.19194444,11.32527778
Bric Costa Rossa (2403 m),44.25083333,7.60000000
Zitterklapfen (2403 m),47.26805556,9.97111111
Lopa (2402 m),46.37027778,13.49416667
Fundelkopf (2401 m),47.11000000,9.67638889
Monte Susino (2397 m),45.99055556,10.18666667
Seckauer Zinken (2397 m),47.33916667,14.73611111
Hochkünzelspitze (2397 m),47.27194444,10.03027778
Cima d'Oltro (2397 m),46.22055556,11.90694444
Zirbitzkogel (2396 m),47.06361111,14.56722222
Veliko Špičje (2396 m),46.34361111,13.76666667
Cima di Sette Selle / Sasso Rotto (2396 m),46.12833333,11.39833333
Planjava (2394 m),46.35666667,14.61000000
Croda di Mezzodi (2394 m),46.53277778,12.57777778
Montagne de Boules (2391 m),44.17388889,6.50055556
Kampspitze (2390 m),47.29388889,13.64277778
Vanil Noir (2389 m),46.52861111,7.14833333
Le Tabor (2389 m),44.97722222,5.85583333
Großer Hochkasten (2389 m),47.67361111,14.04750000
Warscheneck (2388 m),47.65250000,14.24138889
Elferkopf (2387 m),47.30222222,10.17777778
Gamskögel (2386 m),47.36583333,14.54833333
Gamsberg (2385 m),47.13555556,9.37611111
Roc de Garnesier (2383 m),44.66055556,5.79250000
Rudiger (2382 m),47.32916667,10.70166667
Monte Cimone (2379 m),46.42361111,13.38527778
Monte Ponteranica (2378 m),46.02916667,9.59555556
Gartnerwand (2377 m),47.38500000,10.82111111
Knittelkarspitze (2376 m),47.37555556,10.65111111
Vilan (2376 m),47.01277778,9.60305556
Pizzo di Campel (2376 m),46.33194444,9.26166667
Hochweberspitze (2375 m),47.30888889,14.20055556
Reither Spitze (2374 m),47.32305556,11.23611111
La Croix de Cassini (2373 m),45.07333333,6.13416667
Plenge (2373 m),46.65250000,12.90027778
Reißkofel (2371 m),46.68583333,13.14722222
Tschirgant (2370 m),47.24166667,10.79638889
Hohe Pressing (2370 m),46.93777778,13.69222222
Hochtor (2369 m),47.56166667,14.63277778
Monte Pegherolo (2369 m),46.02472222,9.71361111
Gehrenspitze (2367 m),47.38666667,11.13500000
Großer Rettenstein (2366 m),47.33277778,12.29694444
Croda de R'Ancona (2366 m),46.61416667,12.11777778
Geißstein (2363 m),47.33750000,12.49555556
Pusterwalder Hohenwart (2363 m),47.32888889,14.23638889
Niesen (2362 m),46.64611111,7.65250000
Wistätthorn (2362 m),46.45416667,7.38638889
Cima Brica (2362 m),46.38027778,12.53361111
Großes Teufelshorn (2361 m),47.48916667,13.03611111
Poncione Piancascia (2360 m),46.29861111,8.73361111
Vigna Soliva (2356 m),46.00694444,9.98694444
Großer Rosszahn (2356 m),47.38722222,10.46888889
Grimming (2351 m),47.52055556,14.01694444
La Tournette (2351 m),45.82722222,6.28638889
Brienzer Rothorn (2350 m),46.78722222,8.04694444
Wittenberghorn (2350 m),46.41611111,7.21000000
Seekarspitze (2350 m),47.27277778,13.54388889
Kahlersberg (2350 m),47.53138889,13.03222222
Cima di Canogia (2350 m),46.20805556,8.41361111
Bavški Grintavec (2347 m),46.36888889,13.67083333
Pletzen (2345 m),47.33305556,14.61722222
Cimon del Teverone (2345 m),46.20916667,12.40277778
Ellmauer Halt (2344 m),47.56222222,12.30305556
Kellerjoch (Kreuzjoch) (2344 m),47.31888889,11.77083333
Steinfeldspitze (2344 m),47.26611111,13.45194444
Monte Chétif (2343 m),45.79972222,6.94888889
Briceljk (2343 m),46.39472222,13.63194444
Grand Veymont (2341 m),44.87000000,5.52666667
Thaneller (2341 m),47.42638889,10.72472222
Crève Tête (2341 m),45.45111111,6.46777778
Wasserbergfirst (2341 m),46.93944444,8.78916667
Elsighore (2341 m),46.53472222,7.63972222
Daniel (2340 m),47.43277778,10.88027778
Pied Moutet (2339 m),45.00722222,6.09611111
Aserlespitze (2337 m),47.34055556,10.75750000
Großer Grießstein (2337 m),47.39083333,14.54000000
Cima Dodici (2336 m),45.99750000,11.46805556
Hochmölbing (2336 m),47.63416667,14.17805556
Monte Pavione (2335 m),46.10472222,11.82111111
Pizzo del Moro (2335 m),45.93027778,8.12472222
Monte Mucrone (2335 m),45.62027778,7.94472222
Monte Terza Piccola (2334 m),46.56000000,12.62472222
Rinsennock (2334 m),46.90888889,13.85138889
Gailtaler Polinik (2332 m),46.62722222,12.98222222
Maurerberg (2332 m),46.70416667,11.82138889
Tour d'Aï (2331 m),46.37222222,7.00194444
Klomnock (2331 m),46.88083333,13.78805556
Ackerlspitze (2329 m),47.55916667,12.34750000
Bernkogel (2325 m),47.24861111,13.04333333
Monte Piana (2324 m),46.61527778,12.24250000
Cavallazza (2324 m),46.27888889,11.77638889
Cornaget (2323 m),46.31194444,12.58444444
Montagne du Cheval Blanc (2323 m),44.12722222,6.42416667
Pte Noire de Pormenaz (2323 m),45.95888889,6.80138889
Cima del Fop (2322 m),45.93305556,9.86388889
Pizzo Cramalina (2322 m),46.25527778,8.62388889
Seehorn (2321 m),47.51666667,12.85305556
Creta di Mimoias (2320 m),46.51055556,12.62472222
Golzentipp (2317 m),46.73444444,12.60388889
Weißhorn  (2317 m),46.35361111,11.44472222
Marmontana (2316 m),46.17194444,9.17027778
Großhansl (2315 m),47.31861111,14.26583333
Nabois Grande (2313 m),46.43916667,13.48833333
Monte Turlon (2312 m),46.32194444,12.50527778
Cima dei Vieres (2310 m),46.30972222,12.48472222
Großer Beil (2309 m),47.34138889,12.02722222
Hinterrugg (2306 m),47.15361111,9.30472222
Caserine Alte (2306 m),46.31472222,12.63166667
Schaufelspitze (2306 m),47.42305556,11.60777778
Monte Civrari (2302 m),45.19194444,7.32722222
Monte Togano (2301  m),46.08972222,8.39416667
Cima di Menna (2300 m),45.92972222,9.76000000
Hochiss (2299 m),47.45833333,11.76500000
Bruderkogel (2299 m),47.38777778,14.42222222
Steinkogel (2299 m),47.29861111,12.23638889
Mutteristock (2294 m),47.04833333,8.94305556
Lastìa de Framónt (2294 m),46.31416667,12.03527778
Höllwand (2287 m),47.28250000,13.16388889
Lumkofel (2287 m),46.72111111,12.84222222
Stadelhorn (2286 m),47.59277778,12.79583333
Montagne de Coste Longue (2286 m),44.13388889,6.48527778
Ochsenkopf (2286 m),47.11472222,9.62472222
Grande Moucherolle (2284 m),45.00555556,5.56583333
Rautispitz (2283 m),47.07111111,9.02833333
Druesberg (2282 m),47.00416667,8.83361111
Trogkofel / Creta di Aip (2280 m),46.57055556,13.21694444
Großer Daumen (2280 m),47.44138889,10.37555556
Brisi (2279 m),47.15333333,9.27666667
Rauer Knöll (2278 m),47.38694444,11.62333333
Hochschwab (2277 m),47.61833333,15.14222222
Jauken (Torkofel) (2276 m),46.70194444,13.07666667
Kronplatz (Spitzhörnle) (2275 m),46.73888889,11.95805556
Leilachspitze (2274 m),47.43861111,10.54611111
Tosc (2273 m),46.35666667,13.86833333
Rotgschirr (2270 m),47.70166667,13.99638889
Monte Chiadin (2269 m),46.59722222,12.73833333
Monte Vacalizza (2266 m),46.30500000,12.47666667
Hochschottwies (2262 m),47.51416667,13.12472222
Cima Carega (2259 m),45.72416667,11.13000000
Höfats (2259 m),47.36694444,10.34972222
Croix de Rougny (2259 m),44.85916667,5.99944444
Soiernspitze (2257 m),47.48166667,11.35750000
Monte Cadria (2254 m),45.93861111,10.69805556
Dent de Savigny (2252 m),46.54972222,7.22666667
Hirschkopf (2252 m),47.23250000,12.94250000
Admonter Reichenstein (2251 m),47.54916667,14.54416667
Cimon del Cavallo (2251 m),46.13333333,12.49638889
Pta Setteventi (2250 m),45.86027778,10.39277778
Morgenberghorn (2249 m),46.62222222,7.79361111
Hochkogel (2249 m),47.32833333,12.61694444
Rötelstein (2247 m),47.45722222,13.55527778
Gaishorn (2247 m),47.47000000,10.47694444
Sparafeld (2247 m),47.54944444,14.53027778
Pizzo di Gino (2245 m),46.12361111,9.14500000
Großer Pyhrgas (2244 m),47.65250000,14.39805556
Roc d'Enfer (2244 m),46.18972222,6.61194444
Krn (2244 m),46.26611111,13.65833333
Piz di Mezzodì (2240 m),46.21888889,12.03611111
Rosskofel /M Cavallo di Pontebba (2239 m),46.55055556,13.24027778
Köllenspitze (2238 m),47.49888889,10.63027778
Hochstuhl / Veliki Stol (2237 m),46.43361111,14.17472222
Monte Larone (2237 m),46.21916667,8.36277778
Latschur (2236 m),46.73833333,13.39666667
Croise Baulet (2236 m),45.89888889,6.55277778
Schafberg (2235 m),46.63694444,7.31638889
Pasubio (Cima Palon) (2232 m),45.79222222,11.17638889
Pte d'Almet (2232 m),45.98138889,6.52194444
Geierkogel (2231 m),47.39972222,14.49972222
Hoher Ifen (2230 m),47.35444444,10.10000000
Monte Messer (2230 m),46.17527778,12.45500000
Monte Lavanech (2229 m),45.95138889,10.54333333
Monte Borga (2228 m),46.29361111,12.34944444
Gumpeneck (2226 m),47.39722222,14.01472222
Großer Buchstein (2224 m),47.60888889,14.60416667
Kalški Greben (2224 m),46.33138889,14.53805556
Rappenspitze (2223 m),47.40222222,11.64583333
Sosto (2221 m),46.54833333,8.95194444
Dent d'Oche (2221 m),46.35333333,6.73111111
Hochrettelstein (2220 m),47.42472222,14.23277778
Hochkarfelderkopf (2219 m),47.51916667,13.35555556
Cima Valdritta (2218 m),45.72638889,10.84388889
Pte d'Arcalod (2217 m),45.68166667,6.22833333
Lugauer (2217 m),47.55361111,14.72277778
Kleiner Rettenstein (2216 m),47.33638889,12.34166667
Les Jumelles (2215 m),46.35194444,6.81222222
Steinbergstein (2215 m),47.34138889,12.19027778
Gößeck (2214 m),47.44805556,14.89972222
Schwarzwand (2214 m),47.00750000,13.69305556
Aineck (2210 m),47.05555556,13.63833333
Würflinghöhe (2210 m),47.00750000,13.95166667
Monte La Palazza (2210 m),46.31055556,12.35583333
Rombon (2208 m),46.36722222,13.55388889
Mont Charvin (2207 m),45.21750000,6.28500000
Hoher Trieb (2199 m),46.59694444,13.06166667
Pte de la Sambuy (2198 m),45.69166667,6.26555556
Galinakopf (2198 m),47.15166667,9.62083333
Cima di Vanerle (2198 m),46.05138889,10.28138889
Pécloz (2197 m),45.63194444,6.23055556
Hohgant (2197 m),46.78805556,7.90166667
Scheiblingstein (2197 m),47.65333333,14.42388889
Große Arnspitze (2196 m),47.39750000,11.22277778
Chrüz (2196 m),46.95500000,9.77500000
Hochschwung (2196 m),47.40722222,14.33944444
Zuc dal Bôr / Zuc del Bor (2195 m),46.44944444,13.25861111
Gartnerkofel (2195 m),46.57138889,13.30416667
Hochwipfel (2195 m),46.59444444,13.17666667
Guffert (2194 m),47.54611111,11.78916667
Cima della Laurasca (2193 m),46.05805556,8.47611111
Hochzinödl (2191 m),47.56583333,14.66638889
Stockhorn (2190 m),46.69388889,7.53750000
Hinterer Geißstein (2190 m),47.30666667,13.53861111
Blayeul (2189 m),44.24722222,6.31222222
Gros Van (2189 m),46.39638889,7.06916667
Gridone (2188 m),46.12361111,8.64805556
Ochsen (2188 m),46.69888889,7.41861111
Ameringkogel (2187 m),47.07333333,14.80805556
Monte Sernio (2187 m),46.47500000,13.13750000
Pizzocco (2187 m),46.14000000,12.00944444
Kreuzspitze (2185 m),47.52666667,10.91833333
Monte Misa (2184 m),45.90111111,10.44416667
Monte Rite (2183 m),46.38444444,12.25805556
Pizzo Stagno (2183 m),46.07722222,8.45916667
Trélod (2181 m),45.69277778,6.19638889
Monte Bondone (Cornetto) (2180 m),45.98805556,11.03138889
Wertatscha / Vrtača (2180 m),46.43972222,14.21250000
Lüschgrat (2178 m),46.70166667,9.34472222
Grignetta (2177 m),45.92166667,9.39027778
Pte d'entre Deux Pertuis (2176 m),46.23416667,6.73111111
Signal de l'Homme (2176 m),45.06694444,6.08555556
Bulacia / Puflatsch (2174 m),46.56388889,11.61500000
Hexenturm (2172 m),47.64583333,14.48111111
Goldachnock (2171 m),47.03472222,14.05750000
Monte Crot (2169 m),46.42722222,12.09972222
Monte Chiarescons (2168 m),46.34777778,12.62638889
Dobratsch (2166 m),46.60333333,13.67111111
Col Rosa (2166 m),46.58611111,12.09750000
Eisenerzer Reichenstein (2165 m),47.50250000,14.93444444
Gehrenspitze (2163 m),47.50027778,10.65527778
Geierköpfe (2161 m),47.51972222,10.87500000
Monte Massone (2161 m),45.94694444,8.33805556
Pic de Gleize (2161 m),44.63444444,6.04388889
Zuccone Campelli (2159 m),45.95333333,9.51694444
Monte Zeda (2156 m),46.04555556,8.53527778
Dosso della Torta (2156 m),45.96666667,10.76388889
Frudiger (2153 m),46.96888889,10.57944444
Monte Padrio (2153 m),46.18666667,10.22750000
Hochmatt (2152 m),46.57583333,7.22000000
Becco di Filadonna (2150 m),45.96361111,11.19305556
Cresta Le Coraie (2149 m),46.20972222,12.07750000
Pizzo Camino (2148 m),45.97750000,8.23444444
Wöllaner Nock (2145 m),46.77666667,13.82972222
Mittagskogel / Kepa (2143 m),46.50666667,13.95277778
Monte Zermula (2143 m),46.56138889,13.15138889
Goldeck (2142 m),46.75861111,13.45944444
Großer Speikkogel (2140 m),46.78750000,14.97166667
Gstoder (2140 m),47.14250000,13.99250000
Hochobir / Ojstrc (2139 m),46.50583333,14.48777778
Kammspitz (2139 m),47.47611111,13.88500000
Strimskogel (2139 m),47.31194444,13.47083333
Koschutnikturm /Košutnikov turn (2136 m),46.44611111,14.41055556
Dôme de Barrot (2136 m),44.03694444,6.91722222
Cime de Marta / Cima Marta (2135 m),44.01833333,7.65694444
Monte Colli (2135 m),46.03194444,10.20138889
Glatthorn (2134 m),47.26527778,9.87972222
Monte Serva (2133 m),46.20027778,12.23277778
Storžič (2132 m),46.35000000,14.40527778
Monte Birrone (2131 m),44.54250000,7.25222222
Pilatus (Tomlishorn) (2128 m),46.97388889,8.24111111
Elm (2128 m),47.67361111,13.96305556
Kordeschkopf / Kordeževa glava (2126 m),46.50000000,14.78055556
Jerebica (2126 m),46.39805556,13.56500000
Paganella (Cima Roda) (2124 m),46.14333333,11.03750000
Kuhgrat (2123 m),47.16666667,9.56083333
Montagne du Carton (2123 m),44.18138889,6.46083333
Ebenstein (2123 m),47.60583333,15.02833333
Zeiritzkampel (2120 m),47.49138889,14.72611111
Monte Tinisa (2120 m),46.41361111,12.71861111
Spitzegel (2119 m),46.65500000,13.41055556
Wildseeloder (2119 m),47.43194444,12.53194444
Hundstein (2117 m),47.33805556,12.91138889
Roen (2116 m),46.36055556,11.19194444
Almkogel (2116 m),47.61944444,14.09305556
Gsuchmauer (2116 m),47.54888889,14.66750000
Les Monges (2115 m),44.26305556,6.19472222
Montagne de Cordœil (2114 m),44.06833333,6.53000000
Pte de Chalune (2113 m),46.18027778,6.58333333
Sommet de Clot Ginoux (2112 m),44.29638889,6.21277778
Le Chamossaire (2112 m),46.32666667,7.06138889
Mirnock (2110 m),46.75888889,13.71555556
Trentski Pelc (2109 m),46.38583333,13.70944444
Millstätter Alpe (P 2108) (2108 m),46.85722222,13.57833333
Tête de Comagne (2106 m),45.74500000,7.72194444
Mondscheinspitze (2106 m),47.46666667,11.61361111
Les Cluots (2106 m),44.04694444,7.00472222
Schluchberg (2106 m),46.86666667,8.33388889
Hochkogel (2105 m),47.53888889,14.81527778
Schopfenspitz / Gros Brun (2104 m),46.62250000,7.25055556
Schönberg (2104 m),47.13027778,9.59305556
Mont Chalancha (2102 m),44.03500000,7.21277778
Schafreuter (2102 m),47.50916667,11.48750000
Pizzo Proman (2099 m),46.02416667,8.39472222
Zwölferkogel (2099 m),47.70944444,13.95250000
Simmering (2096 m),47.27805556,10.86694444
Himmeleck (2096 m),47.42666667,14.60305556
Damülser Mittagsspitze (2095 m),47.31027778,9.88388889
Schönberg / Wildenkogel (2093 m),47.71250000,13.79361111
Mont Chauffé (2093 m),46.30916667,6.76055556
Schrattenfluh (Hengst) (2092 m),46.83416667,7.95777778
Schatzbichl (2090 m),46.72416667,12.91194444
Il Palone (2090 m),46.02694444,11.05861111
Pte d'Angolon (2090 m),46.13805556,6.73083333
Diedamskopf (2090 m),47.34638889,10.02555556
Itonskopf (2089 m),47.11611111,9.93333333
Jôf di Miezegnot (2087 m),46.47666667,13.45333333
Pic Grillon (2087 m),44.75138889,5.91777778
Krottenkopf (2086 m),47.54500000,11.19333333
Montagne Durbonas (2086 m),44.61111111,5.75944444
Mont de l'Arpille (2085 m),46.07722222,7.00666667
Seebergspitze (2085 m),47.46611111,11.67972222
Mont Aig (2085 m),44.84194444,5.55250000
Monte Zelo (2083 m),46.26333333,12.09250000
Zadnjiški Ozebnik (2083 m),46.36944444,13.78222222
Krofička (2083 m),46.37444444,14.64583333
Chamechaude (2082 m),45.28805556,5.79000000
Hochplatte (2082 m),47.55222222,10.84250000
Trenchtling (Hochturm) (2081 m),47.53444444,15.00805556
Breithorn (2081 m),47.21138889,9.91416667
Monte Altissimo di Nago (2079 m),45.81027778,10.88888889
Ladinger Spitz (2079 m),46.85333333,14.65083333
Rinderberg (2079 m),46.50527778,7.35694444
Turnen (2079 m),46.62777778,7.49250000
Vorderunnütz (2078 m),47.51472222,11.73888889
Klosterwappen (2076 m),47.76722222,15.80500000
Cima del Cacciatore / Kamniti Lovec (2071 m),46.46472222,13.52805556
Stadelstein (2070 m),47.48972222,14.85694444
Monte Coppolo (2069 m),46.08277778,11.71083333
Hirscheck (2068 m),47.62750000,14.12305556
Monte Resettum (2067 m),46.23972222,12.57722222
Col Gentile (2067 m),46.46611111,12.80555556
Padauner Kogel (2066 m),47.04277778,11.50750000
Dosso Alto (2065 m),45.81333333,10.41694444
Creta Grauzaria (2065 m),46.46750000,13.16250000
Großer Woising (2064 m),47.71611111,13.90388889
Chateau Lebrun (2064 m),44.80222222,6.53000000
Burgfeldstand (2063 m),46.72222222,7.79472222
Dent de Cons (2062 m),45.72972222,6.35166667
Raduha (2062 m),46.40972222,14.73833333
Dent de Crolles (2062 m),45.30833333,5.85694444
Monte Dosaip (2062 m),46.28388889,12.63694444
Monte Agaro (2062 m),46.09361111,11.65777778
Pic Melette (2062 m),44.62694444,6.01472222
Begunjščica (2060 m),46.42138889,14.22916667
Monte Stivo (2059 m),45.92055556,10.96361111
Monte Toff (2058 m),46.10666667,10.78833333
Oisternig / Ojstrnik (2052 m),46.56555556,13.50000000
Mont Jocou (2051 m),44.72416667,5.64750000
Sigriswiler Rothorn (2051 m),46.73055556,7.77055556
Mont Lachat de Chatillon (2050 m),45.95972222,6.47666667
Roc Cornafion (2049 m),45.06333333,5.60250000
Stoderzinken (2048 m),47.45944444,13.82888889
Säuling (2047 m),47.53500000,10.75583333
Hundsrügg (2047 m),46.55666667,7.30527778
Mont Colombier (2045 m),45.64416667,6.11972222
Spielberghorn (2044 m),47.43222222,12.63277778
Monte Barone (2044 m),45.73500000,8.15500000
Kanisfluh (Holenke) (2044 m),47.33166667,9.92694444
Güpfi (2043 m),46.79611111,8.19527778
Rochers de Naye (2042 m),46.43194444,6.97611111
Pte de Bellevue (2042 m),46.25750000,6.88750000
Le Glandasse (Pié Ferré) (2041 m),44.73722222,5.47138889
Fürstein (2040 m),46.89555556,8.06972222
Saldeiner Spitze (2036 m),47.39888889,10.53222222
Leobner (2036 m),47.49416667,14.65000000
Tamischbachturm (2035 m),47.61472222,14.69916667
Monte Curie (2035 m),46.59555556,12.61361111
Griesmauerkogel (2034 m),47.55111111,14.98361111
Tête Grosse (2032 m),44.33138889,6.27388889
Gamsfeld (2027 m),47.62305556,13.48111111
Grand Som (2026 m),45.37111111,5.81305556
Fleischbank (2026 m),47.47888889,11.51944444
Pte d'Aveneyre (2026 m),46.41722222,7.00472222
Raut (2025 m),46.22222222,12.64944444
Kosiak / Geißberg (2024 m),46.45305556,14.18166667
Mont Lachat (2023 m),45.92722222,6.35111111
Schreckenspitze (2022 m),47.50000000,11.64944444
Monte Alben (2019 m),45.86222222,9.78194444
Céüse (2016 m),44.50888889,5.96194444
Monte Verena (2015 m),45.93111111,11.41361111
Dent de Lys (2014 m),46.50777778,7.00305556
Montagne de l'Ubac (2010 m),44.26111111,6.41388889
Bäderhorn (2009 m),46.61333333,7.32750000
Heukuppe (2007 m),47.68944444,15.68777778
Corna Blacca  (2006 m),45.79138889,10.38055556
Dristenkopf (2005 m),47.42055556,11.66416667
Montagne de Sous Dine (2004 m),46.00388889,6.32861111
Golz (2004 m),46.67138889,13.36583333
Pizzo Ruscada (2004 m),46.17750000,8.59277778
Brandstein (2003 m),47.60083333,14.98277778
Moléson (2002 m),46.54888889,7.01722222
Vordere Kesselschneid (2001 m),47.60666667,12.27750000
Poludnig / Poludnik (1999 m),46.57194444,13.41027778
Monte Venturosa (1999 m),45.92972222,9.61583333
Pte de Marcelly (1999 m),46.12861111,6.57555556
Monte Scinauz (1999 m),46.53222222,13.36388889
Puy de Rent (1996 m),44.02138889,6.59083333
Kitzbüheler Horn (1996 m),47.47611111,12.43000000
