Name,latitude,longitude
1. Mont Blanc (4808 m),45.83250000,6.86444444
2. Monte Rosa / Mont Rose (Dufourspitze) (4634 m),45.93694444,7.86694444
3. Dom (4545 m),46.09388889,7.85888889
4. Lyskamm (4533 m),45.92222222,7.83555556
5. Weisshorn (4506 m),46.10138889,7.71583333
6. Matterhorn / Mont Cervin (4478 m),45.97638889,7.65861111
7. Dent Blanche (4357 m),46.03416667,7.61194444
8. Grand Combin (4314 m),45.93750000,7.29916667
9. Finsteraarhorn (4274 m),46.53722222,8.12611111
10. Zinalrothorn (4221 m),46.06500000,7.69027778
11. Grandes Jorasses (Pte Walker) (4208 m),45.86916667,6.98833333
12. Alphubel (4206 m),46.06305556,7.86388889
13. Rimpfischhorn (4199 m),46.02333333,7.88416667
14. Aletschhorn (4193 m),46.46500000,7.99388889
15. Strahlhorn (4190 m),46.01333333,7.90166667
16. Dent d'Hérens (4174 m),45.97000000,7.60527778
17. Breithorn (4164 m),45.94111111,7.74888889
18. Jungfrau (4158 m),46.53666667,7.96250000
19. Aig. Verte (4122 m),45.93472222,6.97027778
20. Mönch (4107 m),46.55833333,7.99722222
21. Barre des Écrins (4102 m),44.92250000,6.36000000
22. Schreckhorn (4078 m),46.59000000,8.11805556
23. Ober Gabelhorn (4063 m),46.03861111,7.66805556
24. Gran Paradiso / Grand Paradis (4061 m),45.51805556,7.26722222
25. Piz Bernina (4049 m),46.38222222,9.90805556
26. Gross Fiescherhorn (4049 m),46.55138889,8.06138889
27. Gross Grünhorn (4044 m),46.53194444,8.07777778
28. Weissmies (4017 m),46.12777778,8.01222222
29. Lagginhorn (4010 m),46.15722222,8.00305556
30. Piz Zupò (3996 m),46.36833333,9.93138889
Fletschhorn (3985 m),46.16805556,8.00333333
31. Gletscherhorn (3983 m),46.51277778,7.96777778
32. Meije (3982 m),45.00472222,6.30861111
33. Eiger (3967 m),46.57750000,8.00527778
34. Grivola (3969 m),45.59583333,7.25750000
35. Grand Cornier (3962 m),46.05194444,7.61138889
36. Ailefroide (3954 m),44.88500000,6.35638889
37. Mont Pelvoux (3943 m),44.89750000,6.39666667
38. Piz Roseg (3937 m),46.37361111,9.88305556
39. Bietschhorn (3934 m),46.39166667,7.85083333
40. Trugberg (3933 m),46.54666667,8.01527778
41. Aig. de Tré la Tête (3923 m),45.79472222,6.81500000
42. Pic Sans Nom (3913 m),44.89333333,6.38388889
43. Gross Wannenhorn (3906 m),46.49388889,8.09694444
44. Ortler (3905 m),46.50888889,10.54472222
45. Aig. d'Argentière (3901 m),45.96000000,7.02000000
46. Ruinette (3875 m),45.97916667,7.40027778
47. Aig. de Triolet (3870 m),45.91666667,7.02444444
48. Grande Casse (3855 m),45.40527778,6.82777778
49. Königspitze / Gran Zebrù (3851 m),46.47861111,10.56833333
50. Aig. du Midi (3842 m),45.87861111,6.88750000
51. Monviso / Monte Viso / Vísol (3841 m),44.66750000,7.09083333
52. Bouquetins (3838 m),45.98222222,7.54527778
53. Tour Noir (3837 m),45.94888889,7.03750000
Brunegghorn (3833 m),46.12583333,7.74555556
54. Aig. du Chardonnet (3824 m),45.96888889,7.00111111
55. Nesthorn (3821 m),46.41333333,7.92611111
56. Mont Dolent (3820 m),45.92250000,7.04611111
57. Aig. des Glaciers (3816 m),45.77861111,6.80250000
58. Le Râteau (3809 m),45.00083333,6.28305556
59. Großglockner (3798 m),47.07416667,12.69444444
60. Schinhorn (3797 m),46.45166667,7.94666667
61. Pte de Zinal (3789 m),46.02694444,7.63055556
62. Lauterbrunnen Breithorn (3780 m),46.47861111,7.87666667
63. Mont Pourri (3779 m),45.52805556,6.86027778
64. Aig. Noire de Peuterey (3774 m),45.81527778,6.89305556
65. Wildspitze (3770 m),46.88527778,10.86722222
66. Monte Cevedale (3769 m),46.44388889,10.61666667
67. Grande Ruine (3765 m),44.96777778,6.32972222
68. Aig. de Leschaux (3759 m),45.88750000,7.00694444
69. Pte de Charbonnel (3752 m),45.28027778,7.05500000
70. Piz Morteratsch (3751 m),46.40277778,9.90166667
71. Aig. de la Grande Sassière  (3747 m),45.50500000,7.00000000
72. Weißkugel (3739 m),46.79777778,10.72638889
73. Roche Faurio (3730 m),44.94194444,6.35805556
74. Mont Vélan (3726 m),45.89166667,7.25166667
75. Evêque (3716 m),45.96444444,7.50277778
76. Combin de Corbassière  (3716 m),45.97805556,7.28055556
77. La Singla (3714 m),45.94583333,7.47194444
78. Wetterhörner (Mittelhorn) (3704 m),46.63527778,8.12472222
79. Le Pleureur (3704 m),46.01638889,7.36916667
80. Balmhorn (3698 m),46.42500000,7.69361111
81. Dent Parrachée (3697 m),45.28916667,6.75638889
82. Torre del Gran San Pietro / Tour du Grand-Saint-Pierre (3692 m),45.52583333,7.35888889
83. Monte Disgrazia (3678 m),46.26916667,9.74944444
84. Pta San Matteo (3678 m),46.37777778,10.56722222
85. Uia di Ciamarella (3676 m),45.32861111,7.14527778
86. Dent de Perroc (3676 m),46.03944444,7.52305556
87. Dômes de Miage (3673 m),45.81555556,6.80027778
88. Les Bans (3669 m),44.84861111,6.33666667
89. Großvenediger (3666 m),47.10916667,12.34638889
90. Montagne des Agneaux (3664 m),44.95027778,6.43055556
91. Blüemlisalphorn (3661 m),46.48888889,7.77250000
92. Portjengrat: Pizzo d'Andolla (3654 m),46.10083333,8.03472222
93. Grande Motte (3653 m),45.41138889,6.87027778
Thurwieserspitze (3652 m),46.49527778,10.52527778
94. Aigs Rouges d'Arolla (3644 m),46.05527778,7.43361111
95. Ciarforon / Charforon (3640 m),45.49333333,7.24722222
96. Doldenhorn (3638 m),46.46888889,7.73472222
97. Albaron (3637 m),45.33250000,7.10277778
98. Dammastock (3630 m),46.64333333,8.42111111
99. Hintere Schwärze  (3628 m),46.77333333,10.91472222
100. Levanna Centrale (3619 m),45.41027778,7.17194444
101. Tödi (Piz Russein) (3614 m),46.81111111,8.91472222
102. Pte de Ronce (3612 m),45.26444444,6.97861111
103. Les Diablons (3609 m),46.14250000,7.67111111
104. Grande Rousse / Bec de l'Invergnan (3607 m),45.56333333,7.08444444
105. Tsanteleina (3602 m),45.47944444,7.04611111
106. Aig. du Plat de la Selle (3596 m),44.96444444,6.22333333
107. Piz Glüschaint (3594 m),46.36250000,9.84000000
108. Bessanèse (3592 m),45.30222222,7.11944444
109. Les Rouies (3589 m),44.86444444,6.25861111
110. Grand Roc Noir (3582 m),45.33027778,6.89194444
111. Mont Brulé (3578 m),45.95500000,7.53833333
112. Croix Rousse / Croce Rossa (3571 m),45.26055556,7.13472222
113. Olan (3564 m),44.85944444,6.19722222
114. Großes Wiesbachhorn (3564 m),47.15638889,12.75527778
115. Le Plaret (3563 m),44.96861111,6.26000000
116. Cime de Clot Châtel (3563 m),44.89750000,6.28027778
Ouille d'Arbéron/Pta d'Arnas (3563 m),45.27166667,7.12805556
117. Aig. de Péclet (3562 m),45.28138889,6.62444444
118. Tschingelhorn (3562 m),46.47861111,7.84861111
119. Tête de l'Étret (3559 m),44.89000000,6.24527778
120. Presanella (3558 m),46.22000000,10.66388889
121. Monte Emilius (3557 m),45.67888889,7.38472222
122. Aouille Tseuque (3554 m),45.93027778,7.44305556
123. Monte Leone (3553 m),46.24944444,8.11000000
124. Großer Ramolkogel (3550 m),46.84666667,10.95888889
125. Vertainspitze (3545 m),46.53722222,10.63555556
126. Schalfkogel (3540 m),46.80166667,10.95916667
127. Adamello (3539 m),46.15583333,10.49611111
128. Rocciamelone (3538 m),45.20388889,7.07694444
Hochvernagtspitze (3535 m),46.88138889,10.79611111
129. Watzespitze (3533 m),46.98944444,10.79555556
Bec d'Épicoune (3531 m),45.91472222,7.42250000
130. Mont Gelé (3518 m),45.90416667,7.36611111
131. Weißseespitze (3518 m),46.84666667,10.71722222
132. Aig. Méridionale d'Arves (3514 m),45.12722222,6.33694444
133. Fineilspitze (3514 m),46.78027778,10.83194444
134. Punta Tersiva / Pointe Tersive (3513 m),45.62055556,7.47611111
135. Hochfeiler (3509 m),46.97222222,11.72777778
136. Zuckerhütl (3507 m),46.96444444,11.15388889
137. Aig. de Scolette / Pierre Menue (3506 m),45.16000000,6.76861111
138. M. Morion / Rion: Pointe Monro (3505 m),45.88138889,7.36777778
Galmihorn (3505 m),46.50666667,8.18500000
139. Becca di Luseney / Pic de Luseney (3503 m),45.87055556,7.49111111
140. Sustenhorn (3503 m),46.69888889,8.45527778
141. Dreiherrnspitze (3499 m),47.06916667,12.24083333
142. Schrankogel (3497 m),47.04388889,11.09916667
143. Rötspitze (3496 m),47.02694444,12.20527778
144. Grande Traversière (3496 m),45.52305556,7.05583333
145. Grand Nomenon (3488 m),45.61194444,7.23611111
146. Sonnighorn / Pizzo Bottarello (3487 m),46.07416667,8.02222222
147. Testa del Rutor (3486 m),45.63083333,7.01444444
148. Grande Aig. Rousse (3482 m),45.43305556,7.10972222
149. Pic de Bonvoisin (3481 m),44.82361111,6.34694444
150. Großer Möseler (3480 m),46.99250000,11.78194444
151. Hochwilde (3480 m),46.76555556,11.02222222
152. Olperer (3476 m),47.05305556,11.65888889
153. Ruderhofspitze (3474 m),47.03944444,11.14333333
154. Hinterer Seelenkogel (3472 m),46.80166667,11.04444444
155. Grande Rousse S (Pic Bayle) (3465 m),45.13777778,6.13583333
156. Roche de la Muzelle (3465 m),44.93111111,6.10666667
Pic de l'Étendard (3464 m),45.15444444,6.14388889
157. Carè Alto (3463 m),46.10805556,10.59611111
158. Pic Garin (3462 m),45.65583333,7.37750000
159. Vordere Ölgrubenspitze (3456 m),46.90833333,10.77333333
159. Bliggspitze (3453 m),46.91805556,10.78611111
Johannisberg (3453 m),47.10944444,12.67277778
161. Piz Corvatsch (3451 m),46.40833333,9.81611111
162. Rinderhorn (3448 m),46.41361111,7.65416667
163. Wasenhorn (3447 m),46.49805556,8.16583333
164. Pointe de l'Aouillé (3446 m),45.52666667,7.14805556
165. Hintere Eggenspitze / Cima Sternai (3443 m),46.47777778,10.77055556
166. Roc du Mulinet (3442 m),45.38083333,7.16277778
167. Sirac (3441 m),44.78972222,6.30694444
168. Piz Tremoggia (3441 m),46.35194444,9.82194444
169. Dosson di Genova (3441 m),46.14861111,10.55361111
170. Truc Blanc (3440 m),45.58722222,7.16722222
171. Cima de' Piazzi (3439 m),46.41666667,10.28500000
172. Lagaunspitze (3439 m),46.73916667,10.73916667
173. Zufrittspitze (3439 m),46.50194444,10.78222222
174. Hochgall (3436 m),46.91083333,12.13972222
175. Gspaltenhorn (3436 m),46.51166667,7.82750000
176. Stellihorn (3436 m),46.03638889,8.00083333
177. Pte de la Sana (3436 m),45.38500000,6.91805556
178. Verpeilspitze (3425 m),47.00333333,10.80500000
179. Pte de l'Échelle (3422 m),45.26916667,6.68527778
180. Aig. du Goleon (3422 m),45.10361111,6.32638889
181. Aig. de l'Épéna (3421 m),45.41472222,6.81722222
Pics du Says (3420 m),44.87388889,6.30583333
182. Bifertenstock / Piz Durschin (3419 m),46.80444444,8.95750000
183. Piz Kesch / Piz d' Es-Cha (3418 m),46.62138889,9.87277778
184. Sommet de Bellecôte (3417 m),45.49250000,6.78250000
185. Fleckistock / Rot Stock (3416 m),46.70750000,8.49750000
186. Pte du Bouchet (3416 m),45.25416667,6.60416667
187. Aig. de Chambeyron (3412 m),44.54777778,6.85666667
188. Piz Linard (3411 m),46.79888889,10.07166667
189. Schrammacher (3410 m),47.02694444,11.64305556
190. Hochfirst (3403 m),46.82666667,11.08111111
191. Rheinwaldhorn (3402 m),46.49361111,9.04027778
192. Aigs des Arias (3402 m),44.89555556,6.17416667
193. Fluchthorn (3399 m),46.89083333,10.22750000
194. Piz Calderas (3397 m),46.53638889,9.69583333
195. Großer Bärenkopf (3396 m),47.13083333,12.73166667
196. Hohe Geige (3395 m),47.00472222,10.90861111
197. Piz Platta (3392 m),46.48722222,9.56166667
198. Brec de Chambeyron (3389 m),44.52805556,6.85333333
199. Diechterhorn (3389 m),46.64861111,8.36055556
200. Veneziaspitze / Cima Venezia (3386 m),46.45388889,10.68916667
201. Pic Nord de la Font Sancte (3385 m),44.60500000,6.80027778
202. Punta di Fontanella (3384 m),45.90611111,7.55583333
203. Pta Sulè (3384 m),45.23138889,7.13750000
204. Rognosa d'Etiache / d'Étache (3383 m),45.13472222,6.83388889
205. Piz Güglia / Piz Julier (3380 m),46.49111111,9.75972222
206. Grand Tournalin (3379 m),45.87166667,7.68805556
207. Güferhorn (3379 m),46.51250000,9.06305556
208. Cima di Castello (3379 m),46.30305556,9.67694444
209. Großer Löffler (3379 m),47.03250000,11.91583333
210. Mont d'Ambin / Rocca d'Ambin (3378 m),45.15666667,6.88444444
211. Cima Viola (3374 m),46.38361111,10.19638889
212. Blinnenhorn / Corno Cieco (3374 m),46.42583333,8.30777778
213. Hoher Eichham (3371 m),47.05388889,12.40666667
214. Monte Confinale (3370 m),46.44944444,10.50444444
215. Pizzo Cengalo (3369 m),46.29500000,9.60194444
216. Schwarzenstein (3369 m),47.01000000,11.87416667
217. Hoher Tenn (3368 m),47.17972222,12.75944444
218. Malhamspitzen (3368 m),47.04916667,12.25944444
219. Egginer (3367 m),46.07527778,7.93000000
Innere Schwarze Schneid (3367 m),46.92416667,10.92138889
220. Piz Fora (3363 m),46.34083333,9.78472222
221. Hochalmspitze (3360 m),47.01500000,13.32111111
222. Corno dei Tre Signori (3360 m),46.34305556,10.51555556
Großer Geiger (3360 m),47.09305556,12.30888889
223. Wilde Leck (3359 m),47.00277778,11.06250000
224. Schneebiger Nock / Ruthnerhorn (3358 m),46.90527778,12.08416667
225. Grande Roise (3357 m),45.67527778,7.42305556
226. Rofelewand (3353 m),47.03250000,10.81833333
227. Glockturm (3353 m),46.89333333,10.66555556
228. Puitkogel (3345 m),46.98138889,10.90138889
229. Marmolada (Pta Penia) (3343 m),46.43472222,11.85083333
230. Bric de Rubren / Mongioia (3340 m),44.62000000,6.94972222
231. Piz Ela (3339 m),46.60194444,9.70750000
232. Roteck (3337 m),46.72361111,10.98416667
233. Pta Sommeiller (3332 m),45.12833333,6.85250000
234. Fuscherkarkopf (3331 m),47.09888889,12.74555556
235. Corno Baitone (3330 m),46.17305556,10.44111111
236. Mont Fort (3329 m),46.08111111,7.31861111
237. Grande Rochère (3328 m),45.81361111,7.06138889
238. Oberalpstock (3328 m),46.74277778,8.76944444
239. Busazza (3326 m),46.22388889,10.61111111
240. Tête de Lauranoure (3325 m),44.92638889,6.15194444
241. Pizzo Scalino (3323 m),46.27861111,9.97361111
242. Pic de Rochebrune (3320 m),44.82250000,6.78777778
243. Corno Bianco (3320 m),45.82277778,7.87916667
244. Groabhopt / Testa Grigia / Tête grise (3315 m),45.83083333,7.78666667
245. Mont Giusalet (3312 m),45.18055556,6.93000000
246. Piz Buin (3312 m),46.84416667,10.11861111
247. Mont Pelve (3312 m),45.35611111,6.77666667
248. Pta Lavina (3308 m),45.55555556,7.44861111
249. Pte de l'Aiglière (3307 m),44.81027778,6.41472222
250. Laaser Spitze / Orgelspitze (3305 m),46.56194444,10.71777778
251. Reichenspitze (3303 m),47.13944444,12.11083333
252. Piz Paradisin (3302 m),46.42611111,10.11722222
253. Pta Ramiere / Bric Froid (3302 m),44.86416667,6.93166667
254. Becca de Tos (3301 m),45.63027778,7.10666667
255. Verstanclahorn (3298 m),46.83500000,10.07250000
256. Cima Sud Argentera (3297 m),44.17805556,7.30583333
257. Monte Sobretta (3296 m),46.39750000,10.43694444
258. Strahlkogel (3295 m),47.10916667,11.01944444
259. Gross Schärhorn (3294 m),46.82722222,8.82916667
260. Muttler (3293 m),46.90055556,10.37861111
261. Grand Glaiza / Pta Merciantaira (3293 m),44.84916667,6.88250000
262. Hockenhorn (3293 m),46.42833333,7.74416667
263. Keeskogel (3291 m),47.13638889,12.31194444
264. Schlieferspitze (3290 m),47.12250000,12.24333333
265. M. Aig.tte / L'Asti (3287 m),44.69138889,7.02666667
266. Petzeck (3283 m),46.94805556,12.80472222
267. Pta di Pietra Rossa (3283 m),46.32472222,10.43750000
268. Ritzlihorn (3282 m),46.63222222,8.25888889
269. Roter Knopf (3281 m),46.97861111,12.73944444
270. Piz Fliana (3281 m),46.82722222,10.10861111
271. Pta Rognosa di Sestriere (3280 m),44.93472222,6.93111111
272. Pizzo Dosdè (3280 m),46.41000000,10.22583333
273. Pizzo Tambo / Tambohorn (3279 m),46.49694444,9.28333333
274. Hohe Weiße (3279 m),46.74555556,11.03722222
275. Habicht (3277 m),47.04361111,11.28972222
Gsallkopf (3277 m),47.03777778,10.80500000
276. Basòdino (3272 m),46.41138889,8.46861111
277. Helsenhorn (3272 m),46.30472222,8.19166667
278. Pte d'Archeboc (3272 m),45.58361111,6.98027778
279. Östliche Feuerstein (3268 m),46.97166667,11.24444444
280. Clariden (3267 m),46.84194444,8.87138889
281. Piz Üertsch (3267 m),46.59638889,9.83638889
282. Antelao (3264 m),46.45250000,12.26055556
283. Scima da Saoseo (3264 m),46.38555556,10.15805556
284. Piz Languard (3262 m),46.48833333,9.95638889
285. Piz Forbesch (3262 m),46.52027778,9.55916667
286. Dents du Midi: Haute Cime (3257 m),46.16111111,6.92333333
287. Hasenöhrl (3257 m),46.54444444,10.85861111
288. Gross Düssi / Piz Git (3256 m),46.79166667,8.82750000
289. Hocharn (3254 m),47.07611111,12.93722222
290. Piz Tschütta / Stammerspitz (3254 m),46.90361111,10.34305556
291. Sasseneire (3254 m),46.13861111,7.52527778
292. Ankogel (3252 m),47.05111111,13.24916667
293. Cavistrau / Brigelser Hörner (3252 m),46.78444444,8.97388889
294. Rauhkofel (3251 m),47.07611111,12.09194444
295. Großer Hornkopf (3251 m),46.96722222,12.77888889
296. Wildhorn (3248 m),46.35583333,7.36222222
297. Péne Blanche (3248 m),45.61888889,7.42694444
298. Ringelspitz (3247 m),46.89833333,9.34305556
299. Berrio Blanc (3247 m),45.75305556,6.89777778
300. Piz Ot (3246 m),46.54333333,9.81027778
301. Wasenhorn / Pta Terrarossa (3246 m),46.26638889,8.08555556
302. Pta Painale (3246 m),46.25666667,9.97388889
303. Platthorn (3246 m),46.16638889,7.86111111
304. Tofana di Mezzo (3244 m),46.55111111,12.06555556
305. Hohe Fürleg (3244 m),47.14166667,12.36277778
306. Piz Bacun (3244 m),46.34222222,9.68222222
307. Wildstrubel (3243 m),46.40027778,7.52861111
308. Tête de Soulaure / Pic Félix Neff (3243 m),44.76250000,6.41500000
309. Hochschober (3242 m),46.94250000,12.69833333
310. Titlis (3238 m),46.77194444,8.43777778
311. Grand Golliat (3238 m),45.85916667,7.10166667
312. Becca du Merlo (3237 m),45.84388889,7.47055556
313. Hoher Seeblaskogel (3235 m),47.09555556,11.07472222
314. Pic des Houerts (3235 m),44.58777778,6.76722222
315. Ofenhorn / Pta d'Arbola (3235 m),46.38666667,8.31861111
316. Großer Muntanitz (3232 m),47.07361111,12.58916667
317. Le Péouvou (3232 m),44.63027778,6.88361111
318. Corno di Dosdè (3232 m),46.40777778,10.16972222
319. Hoher Riffler (3231 m),47.08111111,11.70444444
320. Augstenberg / Piz Blaisch Lunga (3230 m),46.86444444,10.20388889
321. Piz Vadret (3229 m),46.68694444,9.96277778
322. Grand Galibier (3228 m),45.06388889,6.43416667
323. Tofana di Rozes (3225 m),46.53694444,12.05111111
324. Hintere Stangenspitze (3225 m),47.05722222,11.97611111
325. Monte Gavia (3223 m),46.35416667,10.47250000
326. Rocca Bernauda / Roche Bernaude (3222 m),45.10138889,6.62750000
327. Monte Cristallo (3221 m),46.57527778,12.20055556
328. Monte Civetta (3220 m),46.38000000,12.05333333
329. Tour Sallière (3220 m),46.12694444,6.92472222
330. Vorderes Plattenhorn: Ostgipfel (3220 m),46.81000000,10.03305556
331. Vogelberg (3218 m),46.47833333,9.06527778
332. Monte del Forno (3214 m),46.33833333,9.72472222
333. Bec de l'Âne (3213 m),45.61555556,6.98388889
334. Le Métailler (3213 m),46.10388889,7.36027778
335. Piz Medel (3211 m),46.61833333,8.91111111
336. Scherbadung / Pizzo Cervandone (3211 m),46.32416667,8.22305556
337. Diablerets (3210 m),46.30388889,7.18888889
338. Gran Vernel (3210 m),46.44250000,11.83222222
339. Piz Timun / Pizzo d'Emet (3209 m),46.46694444,9.40944444
340. Piz Cambrialas (3208 m),46.78944444,8.85194444
341. Pic du Thabor (3207 m),45.11861111,6.56222222
342. Hocheiser (3206 m),47.15638889,12.67333333
343. Glödis (3206 m),46.96111111,12.72611111
344. Pte Haute de Mary (3206 m),44.57555556,6.89472222
345. Pta Sorapiss (3205 m),46.50694444,12.21166667
346. Piz Sesvenna (3204 m),46.70583333,10.40277778
347. Kitzsteinhorn (3203 m),47.18805556,12.68777778
348. Schwarzhorn (3201 m),46.21666667,7.75666667
349. Mastaunspitze (3200 m),46.69361111,10.80250000
350. Piz Vadret (3199 m),46.50888889,9.95083333
351. Gross Spannort (3198 m),46.78666667,8.52444444
352. Dreiländerspitze (3197 m),46.85083333,10.14472222
353. Ptes de Pierre Brune (3196 m),45.37805556,6.85694444
354. Mont Tondu (3196 m),45.76388889,6.75555556
355. Bortelhorn / Pta del Rebbio (3193.6 m),46.29472222,8.12527778
356. Rocca Blancia (3193 m),44.49916667,6.86472222
357. Cima Vezzana (3192 m),46.28972222,11.83027778
358. Pizzo Rotondo (3192 m),46.51750000,8.46611111
359. Hübschhorn I (3192 m),46.23694444,8.05527778
360. Scopi (3190 m),46.57166667,8.83000000
361. Löffelspitze (3190 m),47.01750000,12.16444444
362. Spechhorn / Pizzo d'Antigine (3189 m),46.01222222,8.00111111
363. Gleirscher Fernerkogel (3189 m),47.11416667,11.06361111
364. Piz Surlej (3188 m),46.45333333,9.84305556
365. Gross Windgällen (3187 m),46.80722222,8.73222222
Becca Tey (3186 m),45.58611111,7.09472222
366. Mont Glacier (3185 m),45.63138889,7.53972222
367. Langkofel / Saslonch (3181 m),46.52500000,11.73527778
368. Piz Murtaröl (3180 m),46.57027778,10.28750000
369. Piz Tasna (3179 m),46.85916667,10.25222222
370. Piz Pisoc (3173 m),46.74444444,10.27944444
371. Corn da Tinizong / Tinzenhorn (3173 m),46.61166667,9.67111111
372. Pte de Paumont / Cima del Vallone (3171 m),45.13944444,6.72833333
373. Großer Fensterlekofel (3171 m),46.89222222,12.04305556
374. Pic du Clapier du Peyron (3169 m),44.93722222,6.07694444
375. Hoher Riffler (3168 m),47.11611111,10.37083333
376. Monte Pelmo (3168 m),46.41944444,12.13500000
377. Piz Tavrü (3168 m),46.67916667,10.29611111
378. Piz Vial (3168 m),46.63194444,8.96916667
379. Piz Plavna Dadaint (3167 m),46.70861111,10.22361111
380. Piz Albris (3166 m),46.46416667,9.96333333
381. Piz Lagrev (3165 m),46.44583333,9.72277778
382. Piz Quattervals (3165 m),46.62722222,10.09500000
383. Tête de Sautron /Monte Sautron (3165 m),44.48666667,6.87750000
384. Rosa dei Banchi (3164 m),45.57722222,7.53250000
385. Vieux Chaillol (3163 m),44.73611111,6.19055556
386. Pizzo Stella (3163 m),46.38166667,9.42138889
387. Pta Clairy (3162 m),45.24416667,6.87305556
388. Piz Mitgel (3159 m),46.61416667,9.64666667
389. Hausstock (3158 m),46.87444444,9.06555556
390. Monte Vallecetta (3156 m),46.41194444,10.40027778
391. Tête de Vautisse (3156 m),44.70138889,6.48583333
392. Pic Ouest de Combeynot (3155 m),45.01222222,6.41111111
393. Piz Prüna (3153 m),46.48722222,9.98722222
394. Piz Boè (3152 m),46.50888889,11.82805556
395. Piz Popena (3152 m),46.57638889,12.20750000
396. Cima Brenta (3151 m),46.17944444,10.89972222
397. Piz Terri (3149 m),46.60000000,9.03416667
398. Becs de Bosson (3149 m),46.16777778,7.51805556
399. Kuchenspitze (3148 m),47.04861111,10.23000000
400. Zillerplattenspitze (3148 m),47.10416667,12.12972222
Pfroslkopf (3148 m),46.97777778,10.68916667
401. Croda Rossa / Hohe Gaisl (3146 m),46.63472222,12.14361111
402. Flüela Schwarzhorn (3146 m),46.73583333,9.94166667
403. Mont Raffrey (3146 m),45.64777778,7.51083333
404. Piz Mundin (3146 m),46.92527778,10.43083333
405. Dreischusterspitze (3145 m),46.66888889,12.31722222
406. Napfspitze (3144 m),47.06000000,12.03972222
407. Piz Tea Fondada / Monte Cornaccia (3144 m),46.54944444,10.30805556
408. Cime du Gélas / Monte Gelàs (3143 m),44.12305556,7.38472222
Jochköpfl (3143 m),46.92750000,11.10777778
409. Monte Cassa del Ferro (3140 m),46.57861111,10.20166667
410. Cima Tosa (3140 m),46.15527778,10.87055556
411. Cime Redasco (3139 m),46.36944444,10.30777778
412. Gross Ruchen (3138 m),46.81027778,8.77472222
413. Durreck (3135 m),46.96111111,12.02888889
414. Wilde Kreuzspitze (3135 m),46.91250000,11.59333333
415. Großer Friedrichskopf (3134 m),46.95777778,12.82861111
416. Hinter Schloss (3133 m),46.80250000,8.52694444
417. Pizzo Filone (3133 m),46.45750000,10.16333333
Oldenhorn (3132 m),46.32916667,7.22166667
418. Mont Chaberton (3131 m),44.96472222,6.75166667
419. Piz Duan (3131 m),46.37527778,9.58333333
420. Pte Léchaud (3128 m),45.73361111,6.81416667
421. Grohmannspitze (3126 m),46.51055556,11.73361111
422. Piz Schumbraida (3125 m),46.54277778,10.33833333
423. Fanellhorn (3124 m),46.54777778,9.13055556
424. Piz Nuna (3123 m),46.72333333,10.15444444
425. Schareck (3123 m),47.04138889,13.01750000
426. Groß Seehorn (3122 m),46.88777778,10.03250000
427. Piz Aul (3121 m),46.62277778,9.12500000
428. Piz da l'Acqua (3118 m),46.61111111,10.13888889
429. Grand Pinier (3117 m),44.72361111,6.40166667
430. Schermerspitze (3116 m),46.88777778,11.08444444
431. Grand Queyras (3114 m),44.71555556,6.95194444
432. Luibiskogel (3110 m),47.04972222,10.90416667
433. Monte Servin (3108 m),45.26472222,7.19972222
434. Krönten (3108 m),46.78222222,8.56944444
435. Gletscherhorn (3107 m),46.38750000,9.56055556
435. Pizz Gallagiun / Galleggione (3107 m),46.36694444,9.48777778
437. Ochsner (3107 m),47.04388889,11.81555556
438. Tête de Moïse (3104 m),44.44055556,6.93500000
439. Piz la Stretta / Monte Breva (3104 m),46.47666667,10.04472222
440. Große Ohrenspitze (3101 m),46.90694444,12.17750000
441. Piz Segnas (3099 m),46.90777778,9.23972222
442. Mont Ouille (3090 m),45.73166667,6.86638889
443. Lasörling (3098 m),46.97583333,12.35527778
444. Pte des Cerces (3098 m),45.06555556,6.48833333
445. Pic des Souffles (3098 m),44.86500000,6.13333333
446. Monte Matto (3097 m),44.22500000,7.25638889
447. Pflerscher Tribulaun (3097 m),46.98527778,11.33916667
Blockkogel (3097 m),47.08527778,10.88055556
448. Piz Giuv / Schattig Wichel (3096 m),46.70194444,8.69250000
449. Mont Buet (3096 m),46.02472222,6.85277778
450. Zwölferkofel / Croda dei Toni (3094 m),46.61916667,12.35972222
451. Elferkofel / Cima Undici (3092 m),46.63638889,12.37833333
452. Racherin (3092 m),47.08111111,12.79444444
452a. Crête de Chambave (3090 m),45.80555556,7.03861111
453. Tête de la Courbe (3089 m),44.49777778,6.82333333
454. Vesulspitze (3089 m),47.00166667,10.34916667
455. Monte Forcellina (3087 m),46.46638889,10.19861111
Hohe Villerspitze (3087 m),47.10666667,11.16555556
456. Flüela Wisshorn (3085 m),46.76222222,9.96666667
457. Cima da Lägh / Cima di Lago (3083 m),46.37638889,9.46111111
458. Zwieselbacher Rosskogel (3081 m),47.16333333,11.04805556
Fundusfeiler (3079 m),47.11222222,10.87027778
459. Chüealphorn (3078 m),46.68527778,9.90527778
460. Mont Néry / Neryschthuare (3076 m),45.71583333,7.82000000
461. Großer Hafner (3076 m),47.07000000,13.40083333
462. Pic de Parières (3076 m),44.77944444,6.24083333
463. Piz Starlex (3075 m),46.66277778,10.39250000
464. Piz Sena (3075 m),46.35305556,10.11000000
465. Bristen (3073 m),46.73694444,8.68111111
466. Wildkarspitze (3073 m),47.17250000,12.13916667
467. Pizzo Campo Tencia (3072 m),46.42972222,8.72611111
468. Chüebodenhorn (3070 m),46.50805556,8.45305556
Tête de la Cassille (3069 m),45.04388889,6.49944444
469. La Meyna (3067 m),44.48111111,6.85861111
470. Geltenhorn (3065 m),46.34638889,7.33444444
471. Cunturines / Conturines (3064 m),46.57583333,11.97777778
472. Hoher Prijakt (3064 m),46.91555556,12.71277778
473. Pte des Rochers Charniers (3063 m),44.98777778,6.73555556
474. Hoch Ducan (3063 m),46.68944444,9.85138889
475. Mont Fallère (3061 m),45.77555556,7.19416667
476. Pizzo Gallina (3061 m),46.49472222,8.39194444
477. Seeköpfe (3061 m),47.04444444,10.26750000
478. Piz Grisch (3060 m),46.53111111,9.47277778
492. Rosenspitze (3049 m),46.98833333,12.25444444
Grand Queyron (3060 m),44.84277778,7.00166667
479. Grabspitze (3059 m),46.93861111,11.61444444
480. Monte Vago (3059 m),46.44083333,10.07888889
481. Sasso Vernale (3058 m),46.41888889,11.84055556
482. Bruschghorn (3056 m),46.63111111,9.30666667
483. Patteriol (3056 m),47.04416667,10.18750000
484. Aig. des Corneillets (3055 m),45.32250000,6.66138889
Innere Wetterspitze (3053 m),46.99638889,11.24638889
485. Piz Forun (3052 m),46.65527778,9.86500000
486. Grand Muveran (3051 m),46.23722222,7.12611111
487. Mont Pelat (3051 m),44.26500000,6.70583333
488. Pizzo Coca (3050 m),46.07166667,10.01138889
489. Piz Minor (3049 m),46.45111111,10.02833333
490. Gross Lohner (3049 m),46.46194444,7.60000000
491. Le Rochail (Pte de Malhaubert) (3049 m),44.97527778,6.03250000
493. Aig. du Fruit (3048 m),45.35555556,6.63138889
495. Grand Argentier / Pta Nera (3046 m),45.12222222,6.65861111
494. Grand Bérard (3046 m),44.44944444,6.65972222
496. Piz Murtera (3044 m),46.77527778,10.04027778
497. Gross Wendenstock (3042 m),46.76166667,8.38027778
498. Monte Albergian (3041 m),45.00750000,6.99277778
499. Piz Gannaretsch (3040 m),46.61194444,8.78666667
500. Alperschällihorn (3039 m),46.58666667,9.30666667
501. Pta Scais (3039 m),46.06861111,9.98444444
502. Bric Ghinivert (3037 m),44.95138889,6.99111111
503. Parseierspitze (3036 m),47.17444444,10.47833333
504. Hexenkopf (3035 m),47.02111111,10.46944444
Piz Umbrail (3033 m),46.55083333,10.41444444
505. Tête de Siguret (3032 m),44.44166667,6.78833333
506. Pizzo Ligoncio (3032 m),46.23888889,9.54777778
507. Becca di Vlou (3032 m),45.69166667,7.79222222
508. Piz S-chalembert (3031 m),46.80083333,10.41333333
509. Mont Ténibre / M. Tenibres (3031 m),44.28388889,6.97222222
Piz Cotschen (3031 m),46.81305556,10.17694444
511. Piz Por (3028 m),46.50944444,9.38416667
512. Bündner Vorab (3028 m),46.87388889,9.15666667
513. Corno di Ban (3028 m),46.41777778,8.36111111
514. Zehner / Sas dales Diesc (3026 m),46.62222222,11.96055556
510. Monte Politri (3026 m),44.99111111,7.01861111
515. Furchetta / Furcheta  (3025 m),46.61222222,11.77333333
515. Sas Rigais  (3025 m),46.60916667,11.76666667
517. Piz Corbet (3025 m),46.37972222,9.28027778
518. Corno Bussola / M de Boussolaz (3024 m),45.79555556,7.73611111
519. Wendenhorn (3023 m),46.75388889,8.44361111
520. Wurmaulspitze (3022 m),46.91388889,11.63777778
521. Pte de la Vallaisonnay (3020 m),45.45805556,6.81777778
522. Pic du Mas de la Grave (3020 m),45.12083333,6.24611111
523. Cimet (3020 m),44.29000000,6.70500000
524. Viso Mozzo (3019 m),44.67472222,7.11000000
525. Piz Blas (3019 m),46.57722222,8.72805556
526. Gamspleisspitze (3015 m),46.93166667,10.24194444
527. Hochreichkopf (3010 m),47.17027778,10.96972222
528. Cima dell'Uomo (3010 m),46.40611111,11.80833333
529. Monte Giove (3009 m),46.36138889,8.38805556
530. Acherkogel (3008 m),47.18916667,10.95666667
531. Monte Avic (3007 m),45.67694444,7.55472222
532. Älplihorn (3006 m),46.71083333,9.82583333
533. Ritterkopf (3006 m),47.10250000,12.94944444
534. Furgler (3004 m),47.04027778,10.51222222
535. Kesselkogel / Catinaccio d'Antermoia (3002 m),46.47444444,11.64361111
536. Pizzas d'Anarosa / Grauhörner (3002 m),46.59888889,9.31583333
537. Gigalitz (3001 m),47.05777778,11.89111111
538. Große Zinne / Cima Grande di Lavaredo (2999 m),46.61888889,12.30277778
539. Pizzo Centrale (2999 m),46.57805556,8.61500000
540. Cima Falkner (2999 m),46.19333333,10.90472222
541. Piz Beverin (2998 m),46.65250000,9.35777778
Pic d'Artsinol (2998 m),46.11500000,7.42694444
542. Bric Bouchet /Bric Bucie (2997 m),44.82194444,7.02388889
543. Hoher Dachstein (2995 m),47.47527778,13.60555556
544. Roignais (2995 m),45.64305556,6.68888889
545. Rote Säule (2994 m),47.14666667,12.44388889
546. Le Mourre Froid (2993 m),44.63833333,6.40027778
547. Grand Parpaillon (2990 m),44.49388889,6.65194444
548. Mittler Fanis / Fanis di Mezzo (2989 m),46.55138889,12.01416667
549. Felber Tauernkogel (2988 m),47.15777778,12.48388889
550. Piz de la Lumbreida (2983 m),46.48111111,9.22527778
551. Cima Bagni (2983 m),46.61527778,12.41027778
552. Pala di San Martino (2982 m),46.25361111,11.85083333
553. Rosengartenspitze / Cima Catinaccio (2981 m),46.45472222,11.62083333
554. Aroser Rothorn (2980 m),46.73777778,9.61388889
555. Ròthòre / Corno Rosso (2979 m),45.76694444,7.88027778
556. La Tsavre (2978 m),45.91555556,7.12944444
557. Grand Pic de Belledonne (2977 m),45.17083333,5.99166667
558. Pic de Colle Blanche (2975 m),44.75333333,6.17250000
559. Monte Redival (2973 m),46.30861111,10.61416667
560. Tsa at a l'Etsena / Chateleysine (2971 m),45.80138889,7.39972222
561. Cima Ovest / Westliche Zinne (2973 m),46.61861111,12.29722222
562. Piz Curvér (2972 m),46.60333333,9.49722222
563. Wildgrat (2971 m),47.14055556,10.82666667
564. Schilthorn (2970 m),46.55750000,7.83472222
565. Haut de Cry (2969 m),46.24027778,7.19500000
566. Grieshorn (2969 m),46.45138889,8.39305556
567. Dent de Morcles (2969 m),46.19916667,7.07555556
568. Piz Daint (2968 m),46.61861111,10.29083333
569. Neuner / Sas dles Nü (2968 m),46.63027778,11.98111111
Cima del Duca (2968 m),46.28777778,9.79611111
570. Serottini (2967 m),46.29083333,10.34777778
571. Schober (2967 m),47.03444444,13.46833333
572. Haunold (2966 m),46.68861111,12.27750000
573. Schesaplana (2965 m),47.05361111,9.70750000
574. Aig. du Belvédère (2965 m),45.98777778,6.87361111
575. Reißeck (2965 m),46.94722222,13.36444444
576. Monte Tagliaferro (2964 m),45.87250000,7.97083333
577. Piz Turettas (2963 m),46.58694444,10.33472222
578. Pizzo Lucendro (2963 m),46.53888889,8.51944444
579. Zugspitze (2962 m),47.42111111,10.98527778
580. Weiße Spitze (2962 m),46.87194444,12.35777778
581. Rienzenstock (2962 m),46.68305556,8.63500000
582. Marchhorn / Pta del Termine (2962 m),46.44861111,8.46250000
583. Tête de l'Estrop (2961 m),44.28666667,6.50583333
584. Cima Brenta Alta (2961 m),46.16027778,10.89638889
585. Piz Lagalb (2959 m),46.43166667,10.02361111
586. Cima Giner (2957 m),46.23722222,10.73250000
587. Piz Miez (2956 m),46.65472222,8.91666667
588. Tête de L'Enchastraye / Enciastraia (2954 m),44.36750000,6.88833333
589. Torent / Torrone Alto (2952 m),46.34361111,9.07111111
590. Brunnistock (2952 m),46.84777778,8.55000000
591. Crasta Mora (2952 m),46.57138889,9.86805556
592. Bättlihorn (2951 m),46.33250000,8.09388889
593. Corni di Nefelgiú (2951 m),46.39555556,8.37944444
Hochgrabe (2951 m),46.84888889,12.42166667
594. Crête de Lacha (2950 m),45.09722222,6.45944444
595. Asta Soprana (2950 m),44.20333333,7.31333333
596. Piz Tomül / Wissensteinhorn (2946 m),46.62333333,9.22833333
597. Piz Cavel (2946 m),46.65583333,9.01972222
598. Einshorn (2944 m),46.51611111,9.23027778
599. Gölbner (2943 m),46.82416667,12.50500000
600. Hochkönig (2941 m),47.42027778,13.06250000
601. Cime de la Condamine (2940 m),44.89250000,6.51972222
602. Gross Schinhorn / Pta di Valdeserta (2939 m),46.36111111,8.26083333
603. Pte de la Louïe Blanche (2939 m),45.66111111,6.91472222
604. Pizzo del Ramulazz S (2939 m),46.39666667,9.09277778
Monte Unghiasse (2939 m),45.41611111,7.29500000
605. Pic de Chabrières  (2938 m),44.57055556,6.62361111
606. Mont / Testa Malinvern (2938 m),44.19888889,7.18944444
607. Cime di Plator (2937 m),46.51500000,10.27055556
608. Pietra Grande (2937 m),46.23138889,10.89583333
609. Monte Gruf (2936 m),46.28611111,9.50583333
Mont du Grand Capelet (2935 m),44.07833333,7.42750000
610. Cimon del Froppa (2932 m),46.50722222,12.34055556
611. Monte Pettini (2932 m),46.53611111,10.22750000
612. Bärenhorn (2929 m),46.57555556,9.23194444
613. Tête du Pelvas/Monte Palavas (2929 m),44.79000000,6.99972222
614. Rosställispitz (2929 m),46.78916667,9.99361111
615. Schwarzhorn (2928 m),46.68611111,8.07555556
616. Rocher Blanc (2928 m),45.24166667,6.10722222
617. Badus / Six Madun (2928 m),46.62250000,8.66361111
618. Tête des Lauzières (2928 m),44.87416667,6.52833333
Vollandspitze (2928 m),47.01861111,10.17666667
619. Eggishorn (2927 m),46.43138889,8.09416667
620. Cima Bastioni Sud (2926 m),46.48527778,12.26777778
621. Pizzo del Diavolo della Malgina (2926 m),46.08472222,10.04666667
622. Edlenkopf (2923 m),47.13638889,12.92638889
623. Mährenhorn (2923 m),46.69166667,8.31083333
624. Birkenkofel (2922 m),46.68083333,12.25666667
625. Mont Revic (2922 m),45.68916667,7.56444444
626. Hochgasser (2922 m),47.15055556,12.52194444
Aig. du Grand Fond (2920 m),45.66638889,6.67083333
627. Monte Ciorneva (2918 m),45.26833333,7.26027778
628. Mulleter Seichenkopf (2918 m),46.91527778,12.83138889
629. Corno di Flavona (2918 m),46.24555556,10.89694444
630. Cima Bel Pra (2917 m),46.48444444,12.24111111
631. Dent Favre (2917 m),46.21027778,7.10388889
632. Pizzo del Diavolo di Tenda (2916 m),46.04527778,9.90805556
633. Pte Côte de l'Âne (2916 m),44.24444444,6.80472222
634. Maresenspitz (2916 m),47.00416667,13.23027778
635. L'Aupillon (2916 m),44.44888889,6.57861111
636. Glärnisch (2915 m),46.99500000,8.99527778
637. Pflunspitze (2912 m),47.07944444,10.13277778
638. Cristallina (2912 m),46.46472222,8.53694444
639. Beco Alto del Piz (2912 m),44.29888889,6.98083333
Monte Torena (2911 m),46.08833333,10.10305556
640. Pic du Béal Traversier (2910 m),44.75694444,6.68944444
641. Aig. de Cédéra (2909 m),44.73861111,6.28472222
642. Grande Séolane (2909 m),44.33777778,6.54638889
643. Puy Gris (2908 m),45.29583333,6.14611111
644. Pizzo Diei (2906 m),46.26472222,8.23805556
Les Grandes Aigs (2905 m),45.70555556,6.78500000
645. Signal du Lauvitel E (2904 m),44.93888889,6.04750000
646. Pic de Peyre Eyraute (2903 m),44.82277778,6.63055556
647. Piz Combul (2901 m),46.22972222,10.04388889
648. Grand Chavalard (2899 m),46.17861111,7.11305556
649. Becca di Nona (2898 m),45.83972222,7.41611111
650. Le Pouzenc (2898 m),44.45916667,6.51694444
651. Monte Frisozzo (2897 m),46.02444444,10.44916667
652. Holzgauer Wetterspitze (2895 m),47.20638889,10.36944444
653. Reinhart (2891 m),47.04222222,12.17972222
654. Regenstein (2891 m),46.86055556,12.49055556
655. Monte Orsiera (2890 m),45.06388889,7.10722222
656. Schwarzhorn / Piz Gren (2890 m),46.67750000,9.02277778
657. Monte Re di Castello (2889 m),46.02166667,10.48333333
658. Vorderseespitze (2889 m),47.18472222,10.36694444
659. Napfspitze (2888 m),46.93694444,11.73944444
660. Schildflue (2887 m),46.88055556,9.95638889
661. Wissigstock (2887 m),46.84555556,8.50666667
662. Lizumer Reckner (2886 m),47.14388889,11.63083333
663. Guggernüll (2886 m),46.52388889,9.27138889
664. Le Chevalier (2886 m),44.33055556,6.75916667
664. Pizzo Recastello (2886 m),46.05694444,10.07555556
666. Rietzer Grießkogel (2884 m),47.24583333,11.05944444
667. Monteaviolo (2881 m),46.18527778,10.39861111
668. Pte de la Terrasse (2881 m),45.67083333,6.72472222
669. Piz Fess (2880 m),46.72750000,9.28861111
670. Cima della Sasse (2878 m),46.35694444,12.06444444
670. Moiazza Sud (2878 m),46.33833333,12.05805556
672. Pte de Cloutzau (2878 m),45.00722222,6.74750000
673. Peitlerkofel / Sas de Pütia (2875 m),46.65888889,11.82000000
674. Eisentälispitze (2875 m),46.91333333,9.96250000
675. Schwalbenkofel (2873 m),46.65222222,12.27027778
676. Monte Carbonè (2873 m),44.16027778,7.43055556
677. Monte Agnèr (2872 m),46.27638889,11.95277778
678. Mont Bégo (2872 m),44.07388889,7.45083333
679. Tête des Vieux  (2871 m),45.75888889,6.93500000
680. Grand Aréa (2869 m),44.98000000,6.57333333
681. Kolbenspitze (2868 m),46.77277778,11.14777778
682. Pta Cornour (2867 m),44.85055556,7.09305556
683. Tête de Gaulent (2867 m),44.71888889,6.52555556
684. Nufenenstock (2866 m),46.46694444,8.38833333
685. Rocher de Plassa (2865 m),45.37305556,6.68916667
686. Triglav (2864 m),46.37805556,13.83694444
687. Pala di Meduce (2864 m),46.50194444,12.29750000
688. Poncione di Braga (2864 m),46.43416667,8.54277778
689. Wandfluhhorn / Pizzo Biela (2863 m),46.34472222,8.46416667
690. Hochgolling (2862 m),47.26611111,13.76111111
691. Cima de Barna (2862 m),46.42055556,9.26361111
692. Le Taillefer (2857 m),45.03972222,5.92444444
693. Gstellihorn (2855 m),46.66222222,8.17472222
694. Piz di Sassiglion (2855 m),46.32277778,10.11250000
695. Petite Séolane (2854 m),44.35750000,6.53000000
696. Cima Ciantiplagna (2849 m),45.07222222,7.01333333
697. Croda Granda (2849 m),46.24861111,11.92861111
698. Cima d'Asta (2847 m),46.17666667,11.60527778
699. Pta Nera (2847 m),46.51638889,12.19166667
700. Cima del Desenigo (2845 m),46.20166667,9.56166667
701. Pizol (2844 m),46.95916667,9.38666667
702. Punta Charrà / Sommet du Charra (2844 m),45.02138889,6.71027778
703. Weissfluh (2843 m),46.83500000,9.79527778
704. Pic de Beaudouis (2843 m),44.83638889,6.69444444
705. Schneekarkopf (2843 m),47.14111111,12.03555556
Cornone di Blumone (2843 m),45.95472222,10.45583333
706. Latemar (Diamantiditurm) (2842 m),46.38111111,11.57527778
707. Cima di Gana Bianca (2842 m),46.47138889,8.99222222
708. Kirchdachspitze (2840 m),47.06722222,11.34194444
709. Dürrenstein (2839 m),46.67250000,12.18527778
710. Cima Cadin di San Lucano (2839 m),46.57750000,12.28805556
711. Grand Cheval de Bois (2838 m),44.29250000,6.63388889
712. Kärlskopf (2836 m),46.88861111,12.23611111
713. Tête du Clotonnet (2835 m),44.84277778,6.10111111
714. Gamskarlspitz (2833 m),47.03694444,13.16250000
715. Cheval Noir (2832 m),45.42194444,6.41388889
716. Rocca la Meja (2831 m),44.39833333,7.06888889
717. Drei Türme / Drusentürme (2830 m),47.02472222,9.81000000
Aig. de Venosc (2830 m),44.96805556,6.08722222
718. Grand Pic de la Lauzière (2829 m),45.45916667,6.36666667
719. Pirchkogel (2828 m),47.23194444,10.99916667
720. Große Schlenkerspitze (2827 m),47.24888889,10.61527778
721. Graunock (2827 m),46.88611111,11.78888889
722. Cime de Bolofré (2827 m),44.22305556,6.83527778
723. Madrisahorn (2826 m),46.93111111,9.87222222
724. Kalkwand (2826 m),47.15388889,11.66166667
725. Grand Perron des Encombres (2824 m),45.29777778,6.45027778
726. Tête de l'Hivernet (2824 m),44.62000000,6.45305556
727. Hoher Herd (2824 m),47.19944444,12.45000000
728. Hochmaderer (2823 m),46.92861111,10.02861111
729. Le Bellachat (2822 m),45.37972222,6.39694444
Riedbock  (2822 m),46.92861111,13.35666667
730. Monfandì (2820 m),45.52194444,7.61944444
731. Sulzfluh (2818 m),47.01250000,9.83972222
732. Mont Mounier (2817 m),44.15472222,6.97250000
733. Dosso Resaccio (2814 m),46.50111111,10.22000000
734. Sass Maòr (2814 m),46.23250000,11.84805556
735. Vallüla (2813 m),46.93750000,10.11250000
736. Cima delle Lose (2813 m),44.37222222,6.92500000
737. Frate della Meia (2812 m),45.75888889,7.92416667
738. Seekofel / Sas dla Porta (2810 m),46.67500000,12.07250000
739. Valluga (2809 m),47.15750000,10.21305556
740. Monte Campellio (2809 m),46.05138889,10.47722222
741. Peiderspitze  (2808 m),47.21972222,11.12166667
741. Seejoch  (2808 m),47.22444444,11.10305556
743. Pizzo Castello (2808 m),46.41555556,8.56527778
744. Pic du Frêne (2807 m),45.35250000,6.19833333
745. Haldensteiner Calanda (2805 m),46.90000000,9.46750000
746. Cima de Gagela (2805 m),46.38416667,9.17472222
747. Tête à l'Âne (2804 m),45.98722222,6.77972222
748. Corona di Redorta (2804 m),46.37555556,8.73222222
749. Schlicker Seespitze (2804 m),47.14555556,11.27333333
750. Bös Fulen (2802 m),46.96722222,8.94583333
751. Cima di Ball (2802 m),46.24305556,11.84444444
752. Corno Mud (2802 m),45.88444444,7.96388889
753. Rollspitze (2800 m),46.94638889,11.50777778
754. Rosenjoch (2796 m),47.18000000,11.54333333
755. Col Bechei / Pareispitze (2794 m),46.60777778,12.04444444
756. Kärpf (2794 m),46.91666667,9.09333333
757. Drättehorn (2794 m),46.58222222,7.82388889
758. Pizzo Quadro (2793 m),46.29861111,8.41805556
759. Grand Armet (2792 m),44.98194444,5.93444444
760. Pta Ciamberline (2792 m),44.16555556,7.35805556
761. Grande Tête de l'Obiou (2790 m),44.77472222,5.83972222
762. Pizzo Marumo (2790 m),46.59833333,8.95944444
763. Muntejela de Senes (2787 m),46.67166667,12.01833333
764. Le Luisin (2786 m),46.12083333,6.97000000
765. Polinik (2784 m),46.89500000,13.15805556
766. Schrotkopf (2784 m),47.20888889,12.54055556
767. Grande Autane (2782 m),44.64916667,6.28777778
768. Hirzer (2781 m),46.73722222,11.27666667
769. Tiejer Flue (2781 m),46.78083333,9.73444444
770. Hohe Warte / Coglians (2780 m),46.60694444,12.88305556
771. Monte dei Corni (2779 m),45.57083333,7.63583333
772. Monte Cassorso (2776 m),44.41777778,7.01805556
773. Grun de Saint-Maurice (2775 m),44.81611111,6.05722222
774. Imster Muttekopf (2774 m),47.26722222,10.65166667
775. Pizzo del Sole (2773 m),46.52500000,8.76777778
776. Pta Lunella (2772 m),45.19722222,7.21638889
777. Große Sandspitze (2770 m),46.76638889,12.81194444
778. Madererspitze (2769 m),47.02500000,10.06972222
779. Fallesinspitze (2769 m),47.18138889,10.30027778
Hochsteinflache (2769 m),47.15888889,11.99777778
780. Hochplattig (2768 m),47.35305556,10.98861111
781. Il Madone  (2768 m),46.49194444,8.56694444
782. Dristner (2767 m),47.11333333,11.83944444
783. Schwarzkopf (2765 m),47.16694444,12.86083333
784. Schächentaler Windgällen (2764 m),46.88805556,8.79166667
785. Schwarzberg / Piz Nair (2764 m),46.60944444,8.67777778
786. Albristhorn (2763 m),46.49805556,7.48777778
787. Rotenkogel (2762 m),46.98000000,12.59888889
788. Rastkogel (2762 m),47.20416667,11.75111111
789. Pizzo Massari (2760 m),46.47583333,8.68333333
790. Dent de Barme (2759 m),46.13194444,6.84194444
791. Grand Ferrand (2758 m),44.72250000,5.81611111
792. Reeti / Rötihorn (2757 m),46.66500000,8.01166667
793. Ehrenspitze (2756 m),46.76388889,11.07777778
794. Roche de l'Abisse/Rocca dell'Abisso (2755 m),44.14361111,7.50500000
795. Cima di Cece (2754 m),46.26083333,11.68388889
796. Monte Telenek (2754 m),46.09250000,10.17916667
797. Jôf dal Montâs (2753 m),46.43583333,13.43361111
798. Untere Wildgrubenspitze (2753 m),47.16500000,10.12638889
799. Östliche Eisentalerspitze (2753 m),47.07972222,10.10000000
800. Pic de Valsenestre (2752 m),44.88666667,6.06750000
802. Pte Percée (2750 m),45.95555556,6.55611111
803. Birkkarspitze (2749 m),47.41111111,11.43777778
804. Alplerspitz / Mardatsch (2748 m),46.76166667,11.30111111
805. Sommet de La Frema (2747 m),44.15194444,6.69861111
806. Hochwildstelle (2747 m),47.33500000,13.83083333
807. Corno del Lago (2747 m),45.67083333,7.78305556
808. Hochwart (2746 m),46.79083333,11.31888889
809. Cima Bocche (2745 m),46.35416667,11.75222222
810. Jakobsspitze (2745 m),46.76305556,11.49166667
811. Sadnig (2745 m),46.94111111,12.98916667
812. Hochwanner (2744 m),47.39611111,11.05583333
813. Roteck (2742 m),47.23000000,13.85055556
814. Ärmighore (2742 m),46.54166667,7.71361111
815. Madom Gröss (2741 m),46.36666667,8.83111111
816. Cima Carnera (2741 m),45.85500000,7.97027778
817. Škrlatica (2740 m),46.43277778,13.82111111
818. Kasereck (2740 m),47.23750000,13.77166667
819. Schenadüi (2738 m),46.55250000,8.74861111
820. Spitzhorli (2737 m),46.26444444,7.98055556
821. Monte Zucchero (2735 m),46.35416667,8.71416667
822. Kaltwasserkarspitze (2733 m),47.40305556,11.45055556
823. Dremelspitze (2733 m),47.23500000,10.59583333
824. Pic des Cabottes (2732 m),45.24194444,6.06388889
825. Clot de la Cime (2732 m),44.81666667,6.72194444
826. Monte Borga (2731 m),46.09305556,10.20833333
827. Dzerbion /Monte Zerbion (2720 m),45.78833333,7.66388889
828. Le Grand Coin (2729 m),45.34611111,6.40222222
829. Kesselspitze (2728 m),47.10055556,11.36472222
830. Bergwerkskopf  (2728 m),47.22500000,10.60916667
831. Sas de Mezdi / La Mesola (2727 m),46.47194444,11.87750000
832. Pizzo di Claro (2727 m),46.29583333,9.05555556
833. Pizzo di Prata (2727 m),46.27750000,9.45555556
834. Großer Bettelwurf (2726 m),47.34416667,11.52000000
835. Hirzer (2725 m),47.21777778,11.66305556
836. Schmalzkopf (2724 m),46.93138889,10.53583333
837. Weiße Wand (2722 m),46.94583333,11.81361111
838. Hochwand (2719 m),47.35861111,11.01583333
839. Spitzkofel (2717 m),46.77222222,12.74333333
840. Serles (2717 m),47.12388889,11.38111111
841. Ortstock (2716 m),46.92527778,8.94805556
Valisera (2716 m),46.96083333,9.95583333
842. Cima Ambrizzola (2715 m),46.47916667,12.09805556
843. Colàc (2715 m),46.44138889,11.78250000
844. Watzmann (2713 m),47.55500000,12.92305556
845. Pizzo Straciugo (2713 m),46.13222222,8.12083333
846. Croda da Campo (2712 m),46.58944444,12.43416667
847. Weißeck (2711 m),47.16250000,13.39416667
848. Mont Saint-Sauveur (2711 m),44.16472222,7.13555556
849. Mont Gond (2710 m),46.28555556,7.26361111
850. Pic de Bure (2709 m),44.62666667,5.93500000
851. Hochkreuz (2709 m),46.81500000,13.07416667
852. Gsür (2708 m),46.51083333,7.51972222
853. Coston di Slavaci (2708 m),46.26222222,11.71694444
854. Cima dei Preti (2706 m),46.34250000,12.42083333
855. Penser Weißhorn (2705 m),46.80194444,11.39555556
856. Pizzo Montalto (2705 m),46.09750000,8.13305556
857. Rote Wand (2704 m),47.18638889,9.98500000
858. Monte Fraiteve (2702 m),44.97722222,6.86138889
859. Waldhorn (2702 m),47.29611111,13.81750000
860. Rotsandnollen (2700 m),46.80055556,8.34388889
861. Cima Iuribrutto (2697 m),46.35916667,11.76527778
862. Großer Lafatscher (2696 m),47.34555556,11.45277778
863. Monte Peralba (2694 m),46.62944444,12.71944444
864. Piz de Groven (2694 m),46.31833333,9.15916667
865. Grand Coyer (2693 m),44.10055556,6.69027778
866. Tête du Colonney (2692 m),45.97166667,6.69083333
867. Ilmspitze (2692 m),47.05722222,11.33027778
868. Große Kinigat / Monte Cavallino (2689 m),46.67527778,12.52444444
869. Piz Pian Grand (2689 m),46.41750000,9.15555556
870. Aigs de la Pennaz (2688 m),45.74500000,6.69944444
871. Hochfeind (2687 m),47.18722222,13.49500000
Schwabenalpenkopf (2687 m),46.64527778,12.28666667
872. Grand Mont (2686 m),45.63194444,6.53722222
873. Cima del Serraglio (2685 m),46.59277778,10.24222222
874. Deichselspitze (2684 m),47.27027778,13.82222222
875. Chapeau de Gendarme (2682 m),44.33833333,6.66583333
876. Leutascher Dreitorspitze (2682 m),47.40055556,11.12444444
877. Hochstadel (2681 m),46.76000000,12.85722222
878. Mosermandl (2680 m),47.20611111,13.39611111
879. Mangart (2679 m),46.43944444,13.65472222
880. Spullerschafberg (2679 m),47.17388889,10.07583333
881. Pta Tempesta (2679 m),44.42194444,7.13833333
882. Cima di Santa Maria (2678 m),46.21277778,10.95083333
883. Gaflunakopf (2676 m),47.06388889,10.13472222
884. Piz della Forcola (2675 m),46.31638889,9.29333333
885. Mont Pépoiri (2674 m),44.11083333,7.20277778
886. Mont Rougnous (2673 m),44.18416667,6.87388889
887. Elendberg (2672 m),47.28388889,13.74694444
888. Ballunspitze (2671 m),46.95527778,10.13500000
889. Stübele / Stubele (2671 m),46.46777778,10.93666667
890. Sas Ciampac / Ciampatsch (2671 m),46.56305556,11.83527778
891. Le Grand Miceau (2669 m),45.37111111,6.21222222
892. Monte Duranno  (2668 m),46.32888889,12.40277778
893. Südliche Sonnenspitze (2668 m),47.38666667,11.47777778
894. Jôf Fuart / Wischberg / Viš (2666 m),46.43055556,13.49138889
895. Les Avoudrues (2666 m),46.10111111,6.81305556
896. Monte Bruffione (2665 m),45.94222222,10.49138889
897. Monte Cernera (2664 m),46.46888889,12.05833333
898. Toblacher Pfannhorn (2663 m),46.78388889,12.28416667
899. Hohe Munde (2662 m),47.34777778,11.07194444
900. Grünstein (2661 m),47.34888889,10.92138889
901. Pte Rousse des Chambres (2660 m),46.11277778,6.82027778
902. Pizzo Giezza (2658 m),46.17916667,8.19666667
903. Piz Toissa (2657 m),46.61861111,9.52500000
904. Großer Krottenkopf (2656 m),47.31166667,10.35583333
905. Ilmenspitze /Cima degli Olmi (2656 m),46.48194444,10.96388889
906. Selbhorn (2655 m),47.44694444,12.96361111
907. Sommet du Guiau (2654 m),45.02000000,6.67361111
908. Faulkogel (2654 m),47.21611111,13.37250000
909. Schönfeldspitze (2653 m),47.45805556,12.93750000
Tullen (2653 m),46.65361111,11.77500000
910. Männliflue (2652 m),46.55138889,7.54638889
911. Hohes Licht (2651 m),47.28027778,10.27611111
912. Pta Marguareis (2650 m),44.17388889,7.68444444
913. Le Chenaillet (2650 m),44.90222222,6.74055556
914. Braunarlspitze (2649 m),47.22944444,10.06444444
915. Averau (2649 m),46.50083333,12.03694444
916. Jalovec (2645 m),46.42166667,13.67972222
917. Crête des Crousas (2645 m),44.72305556,6.66055556
918. Zimba (2643 m),47.09138889,9.78888889
919. Heiterwand (2639 m),47.31444444,10.73444444
920. Hocheck (2638 m),47.23611111,13.72416667
921. Kleiner Solstein (2637 m),47.30250000,11.32444444
922. Birnhorn (2634 m),47.47472222,12.73388889
923. Crêt du Rey (2633 m),45.60138889,6.59944444
924. Urbeleskarspitze (2632 m),47.33666667,10.46861111
925. Großstein (2632 m),47.23777778,10.49444444
926. Rüfispitze (2632 m),47.19111111,10.18222222
927. Monte Mongioie (2630 m),44.17500000,7.78555556
928. Munt Buffalora (2630 m),46.62694444,10.25000000
929. Ultner Hochwart (2627 m),46.51166667,10.99972222
930. Blutspitze / Steinkarspitze (2626 m),47.24972222,13.68583333
931. Monte Pradella (2626 m),45.99222222,9.85055556
932. Cima d'Auta Orientale (2624 m),46.40055556,11.88611111
933. Valschavielberge (2624 m),47.00944444,10.12666667
934. Le Rissiou (2622 m),45.18361111,6.06805556
935. Greifenberg (2618 m),47.28916667,13.78972222
936. Monte Stelle delle Sute (2616 m),46.21083333,11.53333333
937. Grande Balmaz (2616 m),45.89333333,6.49666667
938. Piz Cavradi (2614 m),46.63250000,8.69555556
939. Pizzo dell'Alpe Gelato (2613 m),46.24972222,8.44416667
940. Le Gros Têt (2613 m),45.07527778,6.23972222
941. Cima Bianca (2612 m),46.38777778,8.81250000
942. Monte le Stelière (2612 m),44.26583333,7.10722222
943. Foostock / Ruchen (2611 m),46.95666667,9.24472222
944. Monte Legnone (2609 m),46.09472222,9.41472222
945. Sommet d'Assan (2609 m),44.68555556,6.73611111
946. Mittlere Jägerkarspitze (2608 m),47.35361111,11.37583333
947. Hochkalter (2607 m),47.56944444,12.86666667
948. Cima del Rouss (2604 m),44.32111111,7.00000000
949. Campanile Ciastelin (2602 m),46.51083333,12.37722222
950. Becco di Mezzodì (2602 m),46.46666667,12.11444444
951. Schafseitenspitze (2602 m),47.10277778,11.55444444
952. Razor (2601 m),46.41194444,13.79194444
953. Monte Cabianca (2601 m),46.01000000,9.86694444
954. Monte Mars (2600 m),45.63333333,7.91527778
955. Silberpfennig (2600 m),47.08916667,13.04166667
956. Großer Knallstein (2599 m),47.32000000,13.97694444
957. Vorder Grauspitz (2599 m),47.05277778,9.58111111
958. Biberkopf (2599 m),47.27055556,10.23277778
959. Le Catogne (2598 m),46.05416667,7.11083333
960. Zellinkopf (2597 m),46.89416667,12.95138889
961. Großer Hundstod (2594 m),47.51250000,12.88666667
962. Roc du Bécoin (2594 m),45.49277778,6.66388889
963. Gametzalpenkopf (2594 m),46.68916667,12.10888889
964. Pizzo Paglia (2593 m),46.23166667,9.21916667
965. Monte Forno / Gorio (2593 m),46.29527778,8.32361111
966. Hochvogel (2592 m),47.37972222,10.43694444
967. Zwölferspitz (2592 m),46.66166667,12.72833333
968. Eggenkofel (2591 m),46.73861111,12.67805556
969. Rupprechtseck (2591 m),47.23944444,14.00138889
970. Kanin (2587 m),46.36000000,13.43833333
971. Monte Terza Grande (2586 m),46.52694444,12.62138889
972. Monte Cridola (2581 m),46.42638889,12.48666667
973. Hochspitz / M. Vancomun (2581 m),46.65722222,12.66861111
974. Ruitelspitze (2580 m),47.25555556,10.44611111
975. Mont Triboulet (2578 m),44.20611111,6.86583333
976. Türchlwand (2577 m),47.15083333,13.03250000
977. Plose (Große Gabler) (2576 m),46.68972222,11.76305556
978. Stätzerhorn (2575 m),46.75583333,9.51222222
979. Cima delle Buse (2574 m),46.18611111,11.49805556
980. Pfannenstock (2573 m),46.96166667,8.91138889
981. Westlicher Johanneskopf (2573 m),47.21027778,10.02250000
982. Torrione dei Longerin (2571 m),46.62916667,12.56138889
983. Setsas (2571 m),46.51944444,11.95750000
984. Kanjavec (2569 m),46.36027778,13.80972222
985. Tête du Collier (2567 m),44.71722222,5.96416667
986. Maurerkopf (2567 m),46.71277778,12.03388889
987. Schiara (2565 m),46.23000000,12.18222222
988. Hinter Planitzer (2562 m),47.21777778,12.63694444
989. Grand Galbert (2561 m),45.09055556,5.95972222
990. Grintovec (2558 m),46.35694444,14.53611111
991. Kreuzjoch (2558 m),47.25138889,11.98277778
992. Monte Bo (2556 m),45.71416667,7.99888889
993. Wolayer Seekopf / Monte Capolago (2554 m),46.60611111,12.86083333
994. Pizzo Tre Signori (2554 m),46.01194444,9.52833333
995. Modeon del Buinz (2554 m),46.41666667,13.47111111
996. Namloser Wetterspitze (2553 m),47.32305556,10.64166667
997. Kirchlispitzen (2552 m),47.03888889,9.76944444
998. Tàmer Piccolo (2550 m),46.31055556,12.12194444
999. Concarena (Cima della Bacchetta) (2549 m),46.01083333,10.28000000
1000. Monte Brentoni (2548 m),46.51277778,12.56583333
1001. Le Tarent (2548 m),46.38222222,7.14750000
1002. Monfalcon di Montanaia (2548 m),46.40444444,12.48611111
1003. Sass de Mura (2547 m),46.16361111,11.92527778
1004. Rosso di Ribia (2547 m),46.26111111,8.52972222
1005. Prisojnik (2547 m),46.42527778,13.77000000
1006. Hochnissl (2547 m),47.36722222,11.61805556
1007. Les Aig.ttes (2547 m),45.18388889,6.12500000
1008. Crest / Monte Cresto (2546 m),45.68083333,7.91000000
1009. L'Aig. Rouge (2545 m),45.04611111,6.64444444
1010. Predigstuhl (2543 m),47.26194444,13.91138889
1011. Monte Talvena (2542 m),46.26611111,12.15583333
1012. Giferspitz (2542 m),46.45111111,7.35333333
1013. Mohnenfluh (2542 m),47.23222222,10.10222222
1014. Pöngertlekopf & Pfaffeneck  (2539 m),47.17416667,10.03444444
1015. Östliche Karwendelspitze (2537 m),47.44500000,11.42194444
1016. Pizzo Cavregasco (2535 m),46.23944444,9.27638889
1017. Glogghüs (2534 m),46.76055556,8.26250000
1018. Hochwang (2534 m),46.87416667,9.63305556
1019. Pte de Comborsier (2534 m),45.61027778,6.51555556
1020. Großer Widderstein (2533 m),47.28472222,10.12916667
1021. Cima Quarazza (2530 m),46.12972222,11.57000000
1022. Cima Coltorondo (2530 m),46.25583333,11.63805556
1023. Gurpitscheck (2526 m),47.21083333,13.61472222
1024. Gamskofel (2526 m),46.63083333,12.90083333
1025. Mont Joly (2525 m),45.82611111,6.69305556
1026. Magerrain (2524 m),47.03305556,9.22000000
1027. Hocheisspitze (2523 m),47.54694444,12.84333333
1028. Hoher Göll (2522 m),47.59416667,13.06777778
1029. Presolana (2521 m),45.95666667,10.05527778
1030. Monte delle Scale (2521 m),46.50250000,10.32666667
1031. Tschuggen (2521 m),46.60027778,7.94972222
1032. Hochjoch (2520 m),47.06611111,9.98805556
1033. Dreispitz (2520 m),46.59277778,7.75972222
1034. Steinwand / Creta Verde (2520 m),46.64277778,12.79222222
1035. Cima di Bri (2520 m),46.30527778,8.88416667
1036. Monte Seleron (2519 m),46.10000000,9.72888889
1037. Großer Priel (2515 m),47.71694444,14.06333333
1038. Chaiserstock (2515 m),46.92833333,8.72861111
1039. Cima Busa Alta (2513 m),46.24972222,11.60944444
1040. Glanderspitze (2512 m),47.14833333,10.66166667
1041. Pizzo Arera (2512 m),45.93472222,9.81583333
1042. Pizzo Alto (2512 m),46.07750000,9.45666667
1043. Großes Ochsenhorn (2511 m),47.53833333,12.66083333
1044. Villanderer Berg (2509 m),46.65861111,11.41888889
1045. Mitterhorn (2506 m),47.54944444,12.62861111
1046. Dormillouse (2505 m),44.40972222,6.38694444
1047. Breithorn (2504 m),47.45694444,12.90277778
1048. Cima di Pape / Cima di Sanson (2503 m),46.33444444,11.92805556
1049. Piz Ledu (2503 m),46.23250000,9.32166667
1050. Säntis (2502 m),47.24944444,9.34333333
1051. Großer Pleißlingkeil (2501 m),47.22722222,13.49138889
1052. Marchkopf (2499 m),47.25111111,11.80611111
1053. Castello di Moschesin (2499 m),46.29722222,12.13277778
1054. Monte Croce (2496 m),46.16944444,11.39222222
1055. Mittlere Kreuzspitze (2496 m),47.33611111,10.59277778
1056. Les Grands Moulins (2495 m),45.40722222,6.19833333
1057. Wannig (2493 m),47.33694444,10.86222222
1058. Pizzo Camino (2491 m),45.98166667,10.17750000
1059. Fulen (2491 m),46.91861111,8.71472222
1060. Viezzena (2490 m),46.33750000,11.67555556
1061. Zanggen / Pala di Santa (2488 m),46.34583333,11.51194444
1062. Creton di Clap Grant  (2487 m),46.52916667,12.67055556
1063. Cima di Pinadee (2486 m),46.51333333,8.97694444
1064. Grand Arc (2484 m),45.56666667,6.36472222
1065. Étale (mountain) (2483 m),45.85000000,6.44777778
1066. Monte Bertrand (2483 m),44.11777778,7.67527778
1067. Rammelstein (2483 m),46.83444444,12.05305556
1068. Hochkarspitze (2482 m),47.44750000,11.35055556
1069. Rauchberg (2480 m),47.30416667,10.75888889
1070. Monte Pramaggiore (2478 m),46.36500000,12.55333333
1071. Monte Ziolera (2478 m),46.17194444,11.45500000
1072. Spillgerte (2476 m),46.53666667,7.44666667
1073. Rettelkirchspitze (2475 m),47.25972222,14.12777778
1074. Bivare / Monte Bìvera (2474 m),46.44138889,12.64194444
1075. Greim (2474 m),47.24777778,14.15166667
1076. Monte Rinaldo (2473 m),46.59888889,12.65805556
1077. Pierre Avoi (2473 m),46.11805556,7.20027778
Špik (2473 m),46.44861111,13.81444444
1078. Rappenspitze (2472 m),47.23666667,10.19750000
1079. Col Nudo (2471 m),46.22750000,12.40277778
1080. Loreakopf (2471 m),47.35416667,10.77166667
1081. Cime de l'Aspre (2471 m),44.17555556,6.80972222
1082. Lungauer Kalkspitze (2471 m),47.27222222,13.62527778
1083. Ochsenkopf  (2470 m),47.27527778,12.07888889
1083. Salzachgeier  (2470 m),47.29361111,12.10361111
1085. Sasso di Bosconero (2468 m),46.33638889,12.26861111
1086. Cima Scanaiol (2467 m),46.21500000,11.76583333
1087. Gamskarkogel (2467 m),47.16111111,13.15861111
1088. Hauts-Forts (2466 m),46.16861111,6.77750000
1089. Pizzo la Scheggia (2466 m),46.18416667,8.41527778
1090. Creta Forata (2462 m),46.54250000,12.73583333
1091. Silberspitze (2461 m),47.18416667,10.57277778
1092. Mont Mirantin (2460 m),45.68416667,6.49944444
1092. Pte de la Grande Journée (2460 m),45.66750000,6.50111111
1094. Rauchkofel (2460 m),46.61944444,12.88333333
Cima dei Lasteri (2459 m),46.17694444,10.94833333
1095. Große Bischofsmütze (2458 m),47.49388889,13.51111111
1096. Gummfluh (2458 m),46.44055556,7.19500000
1097. Sonnjoch (2457 m),47.41222222,11.60500000
1098. Hohniesen (2454 m),46.57722222,7.58333333
Rumer Spitze (2454 m),47.32027778,11.42583333
1099. Rocher Rond (2453 m),44.69750000,5.82944444
1100. Gamsjoch (2452 m),47.41833333,11.54888889
1101. Monte Bussaia (2451 m),44.21805556,7.46805556
1102. Pomagagnon (2450 m),46.57388889,12.14027778
1103. Cima Cadi (2449 m),46.22361111,10.29444444
1104. Großer Bösenstein (2448 m),47.44333333,14.40444444
1105. Spitzmauer (2446 m),47.69527778,14.06222222
1106. Monte Spondone (2445 m),45.98055556,9.79472222
1107. Kröndlhorn (2444 m),47.29888889,12.16472222
1108. Monte Siera (2443 m),46.54916667,12.71083333
1109. Eisenhut (2441 m),46.95194444,13.92888889
1110. Mürtschenstock (2441 m),47.07000000,9.14416667
1111. Großer Rosennock (2440 m),46.87750000,13.71250000
1112. Schwarzhorn (2439 m),46.33472222,11.45472222
1113. Pte Blanche (2438 m),45.99944444,6.45972222
1114. Gufelstock (2436 m),47.02500000,9.14666667
Kraxenkogel (2436 m),47.25388889,13.35722222
1115. Altmann (2435 m),47.23944444,9.37166667
1116. Laugenspitze (2434 m),46.53472222,11.08611111
1117. Seehorn (2434 m),46.18250000,8.11555556
1118. Deneck (2433 m),47.29111111,14.05000000
1119. Cornettes de Bise (2432 m),46.33250000,6.78472222
1120. Mont de Grange (2432 m),46.26250000,6.78083333
1121. Raz de Bec (2431 m),44.66805556,5.98805556
1122. L'Ouillon (2431 m),45.24000000,6.21500000
1123. Monte Azzarini (2431 m),46.05972222,9.64250000
1124. Raucheck (2430 m),47.49916667,13.22666667
1125. Laliderer Falk (2427 m),47.43500000,11.51916667
1126. Monte Ferrante (2427 m),45.97472222,10.02861111
1127. Sforniòi di Mezzo (2425 m),46.34861111,12.26722222
1128. Großer Galtenberg (2424 m),47.33666667,11.97638889
1129. Col della Croce (2423 m),46.16527778,11.63861111
1130. Oberwölzer Schoberspitze (2423 m),47.28916667,14.16111111
1131. L'Argentine (2422 m),46.27333333,7.13083333
1132. Monte Cimon (2422 m),46.55138889,12.76305556
1133. Cima di Capezzone (2421 m),45.94500000,8.20888889
1134. Geierhaupt (2417 m),47.37472222,14.63638889
1135. Monte Alto di Pelsa (2417 m),46.35583333,11.99972222
1136. Ehrwalder Sonnenspitze (2417 m),47.36750000,10.92194444
1137. Pizzo Erra (2417 m),46.44111111,8.89083333
1138. Karhorn (2416 m),47.24805556,10.15111111
1139. Hochreichart (2416 m),47.36333333,14.68194444
1140. Hoh Brisen (2413 m),46.89750000,8.46583333
1141. Crodon di Tiarfin (2413 m),46.46583333,12.59166667
1142. Schafberg (2413 m),47.16916667,9.95138889
1143. Sassolungo di Cibiana (2413 m),46.35888889,12.28277778
1144. Bleikogel (2411 m),47.51416667,13.29833333
1145. Grignone (2409 m),45.95333333,9.38750000
1146. Cima di Pramper  (2409 m),46.29666667,12.16694444
1147. Mont Charvin (2409 m),45.80250000,6.42000000
1148. Kilnprein (2408 m),46.98527778,13.84277778
1149. Monte Pezza (2408 m),46.40583333,11.92055556
1150. Sasso Bianco (2407 m),46.41250000,11.95944444
1151. Zirmebenjoch (2407 m),47.29388889,10.53833333
1152. Monte San Lucano (2406 m),46.31083333,11.96000000
1153. Erlspitze (2405 m),47.32000000,11.28555556
1154. Cresta di Enghe (2405 m),46.52083333,12.63444444
1155. Saile (2404 m),47.19194444,11.32527778
1156. Bric Costa Rossa (2403 m),44.25083333,7.60000000
1157. Zitterklapfen (2403 m),47.26805556,9.97111111
1158. Lopa (2402 m),46.37027778,13.49416667
1159. Fundelkopf (2401 m),47.11000000,9.67638889
1160. Monte Susino (2397 m),45.99055556,10.18666667
1161. Seckauer Zinken (2397 m),47.33916667,14.73611111
1162. Hochkünzelspitze (2397 m),47.27194444,10.03027778
1163. Cima d'Oltro (2397 m),46.22055556,11.90694444
1164. Zirbitzkogel (2396 m),47.06361111,14.56722222
1160. Veliko Špičje (2396 m),46.34361111,13.76666667
1166. Cima di Sette Selle / Sasso Rotto (2396 m),46.12833333,11.39833333
1167. Planjava (2394 m),46.35666667,14.61000000
1168. Croda di Mezzodi (2394 m),46.53277778,12.57777778
1169. Montagne de Boules (2391 m),44.17388889,6.50055556
1170. Kampspitze (2390 m),47.29388889,13.64277778
1171. Vanil Noir (2389 m),46.52861111,7.14833333
1172. Le Tabor (2389 m),44.97722222,5.85583333
1173. Großer Hochkasten (2389 m),47.67361111,14.04750000
1174. Warscheneck (2388 m),47.65250000,14.24138889
1175. Elferkopf (2387 m),47.30222222,10.17777778
1176. Gamskögel (2386 m),47.36583333,14.54833333
1177. Gamsberg (2385 m),47.13555556,9.37611111
1178. Roc de Garnesier (2383 m),44.66055556,5.79250000
1179. Rudiger (2382 m),47.32916667,10.70166667
1180. Monte Cimone (2379 m),46.42361111,13.38527778
1181. Monte Ponteranica (2378 m),46.02916667,9.59555556
1182. Gartnerwand (2377 m),47.38500000,10.82111111
1183. Knittelkarspitze (2376 m),47.37555556,10.65111111
1184. Vilan (2376 m),47.01277778,9.60305556
1185. Pizzo di Campel (2376 m),46.33194444,9.26166667
1186. Hochweberspitze (2375 m),47.30888889,14.20055556
1187. Reither Spitze (2374 m),47.32305556,11.23611111
1188. La Croix de Cassini (2373 m),45.07333333,6.13416667
1189. Plenge (2373 m),46.65250000,12.90027778
1190. Reißkofel (2371 m),46.68583333,13.14722222
1191. Tschirgant (2370 m),47.24166667,10.79638889
1192. Hohe Pressing (2370 m),46.93777778,13.69222222
1193. Hochtor (2369 m),47.56166667,14.63277778
1194. Monte Pegherolo (2369 m),46.02472222,9.71361111
1195. Gehrenspitze (2367 m),47.38666667,11.13500000
1196. Großer Rettenstein (2366 m),47.33277778,12.29694444
1197. Croda de R'Ancona (2366 m),46.61416667,12.11777778
1198. Geißstein (2363 m),47.33750000,12.49555556
1199. Pusterwalder Hohenwart (2363 m),47.32888889,14.23638889
1200. Niesen (2362 m),46.64611111,7.65250000
1201. Wistätthorn (2362 m),46.45416667,7.38638889
Cima Brica (2362 m),46.38027778,12.53361111
1202. Großes Teufelshorn (2361 m),47.48916667,13.03611111
1203. Poncione Piancascia (2360 m),46.29861111,8.73361111
1204. Vigna Soliva (2356 m),46.00694444,9.98694444
1205. Großer Rosszahn (2356 m),47.38722222,10.46888889
1206. Grimming (2351 m),47.52055556,14.01694444
1207. La Tournette (2351 m),45.82722222,6.28638889
1208. Brienzer Rothorn (2350 m),46.78722222,8.04694444
1209. Wittenberghorn (2350 m),46.41611111,7.21000000
1210. Seekarspitze (2350 m),47.27277778,13.54388889
1211. Kahlersberg (2350 m),47.53138889,13.03222222
1211. Cima di Canogia (2350 m),46.20805556,8.41361111
1213. Bavški Grintavec (2347 m),46.36888889,13.67083333
1214. Pletzen (2345 m),47.33305556,14.61722222
1215. Cimon del Teverone (2345 m),46.20916667,12.40277778
1216. Ellmauer Halt (2344 m),47.56222222,12.30305556
1217. Kellerjoch (Kreuzjoch) (2344 m),47.31888889,11.77083333
1218. Steinfeldspitze (2344 m),47.26611111,13.45194444
1219. Monte Chétif (2343 m),45.79972222,6.94888889
1220. Briceljk (2343 m),46.39472222,13.63194444
1221. Grand Veymont (2341 m),44.87000000,5.52666667
1222. Thaneller (2341 m),47.42638889,10.72472222
1223. Crève Tête (2341 m),45.45111111,6.46777778
1224. Wasserbergfirst (2341 m),46.93944444,8.78916667
Elsighore (2341 m),46.53472222,7.63972222
1225. Daniel (2340 m),47.43277778,10.88027778
1226. Pied Moutet (2339 m),45.00722222,6.09611111
1227. Aserlespitze (2337 m),47.34055556,10.75750000
1228. Großer Grießstein (2337 m),47.39083333,14.54000000
1229. Cima Dodici (2336 m),45.99750000,11.46805556
1230. Hochmölbing (2336 m),47.63416667,14.17805556
1231. Monte Pavione (2335 m),46.10472222,11.82111111
1232. Pizzo del Moro (2335 m),45.93027778,8.12472222
1233. Monte Mucrone (2335 m),45.62027778,7.94472222
1234. Monte Terza Piccola (2334 m),46.56000000,12.62472222
1235. Rinsennock (2334 m),46.90888889,13.85138889
1236. Gailtaler Polinik (2332 m),46.62722222,12.98222222
1237. Maurerberg (2332 m),46.70416667,11.82138889
1238. Tour d'Aï (2331 m),46.37222222,7.00194444
1239. Klomnock (2331 m),46.88083333,13.78805556
1240. Ackerlspitze (2329 m),47.55916667,12.34750000
1241. Bernkogel (2325 m),47.24861111,13.04333333
1242. Monte Piana (2324 m),46.61527778,12.24250000
1243. Cavallazza (2324 m),46.27888889,11.77638889
1244. Cornaget (2323 m),46.31194444,12.58444444
1245. Montagne du Cheval Blanc (2323 m),44.12722222,6.42416667
1246. Pte Noire de Pormenaz (2323 m),45.95888889,6.80138889
1247. Cima del Fop (2322 m),45.93305556,9.86388889
Pizzo Cramalina (2322 m),46.25527778,8.62388889
1248. Seehorn (2321 m),47.51666667,12.85305556
1249. Creta di Mimoias (2320 m),46.51055556,12.62472222
1250. Golzentipp (2317 m),46.73444444,12.60388889
1251. Weißhorn  (2317 m),46.35361111,11.44472222
1252. Marmontana (2316 m),46.17194444,9.17027778
1253. Großhansl (2315 m),47.31861111,14.26583333
1254. Nabois Grande (2313 m),46.43916667,13.48833333
1255. Monte Turlon (2312 m),46.32194444,12.50527778
1256. Cima dei Vieres (2310 m),46.30972222,12.48472222
1257. Großer Beil (2309 m),47.34138889,12.02722222
1258. Hinterrugg (2306 m),47.15361111,9.30472222
1259. Caserine Alte (2306 m),46.31472222,12.63166667
1260. Schaufelspitze (2306 m),47.42305556,11.60777778
1261. Monte Civrari (2302 m),45.19194444,7.32722222
1262. Monte Togano (2301  m),46.08972222,8.39416667
1263. Cima di Menna (2300 m),45.92972222,9.76000000
1264. Hochiss (2299 m),47.45833333,11.76500000
1265. Bruderkogel (2299 m),47.38777778,14.42222222
1266. Steinkogel (2299 m),47.29861111,12.23638889
1267. Mutteristock (2294 m),47.04833333,8.94305556
1268. Lastìa de Framónt (2294 m),46.31416667,12.03527778
1269. Höllwand (2287 m),47.28250000,13.16388889
1270. Lumkofel (2287 m),46.72111111,12.84222222
1271. Stadelhorn (2286 m),47.59277778,12.79583333
1272. Montagne de Coste Longue (2286 m),44.13388889,6.48527778
1273. Ochsenkopf (2286 m),47.11472222,9.62472222
1274. Grande Moucherolle (2284 m),45.00555556,5.56583333
1275. Rautispitz (2283 m),47.07111111,9.02833333
1276. Druesberg (2282 m),47.00416667,8.83361111
1277. Trogkofel / Creta di Aip (2280 m),46.57055556,13.21694444
1278. Großer Daumen (2280 m),47.44138889,10.37555556
1279. Brisi (2279 m),47.15333333,9.27666667
1280. Rauer Knöll (2278 m),47.38694444,11.62333333
1281. Hochschwab (2277 m),47.61833333,15.14222222
1282. Jauken (Torkofel) (2276 m),46.70194444,13.07666667
1283. Kronplatz (Spitzhörnle) (2275 m),46.73888889,11.95805556
1284. Leilachspitze (2274 m),47.43861111,10.54611111
1285. Tosc (2273 m),46.35666667,13.86833333
1286. Rotgschirr (2270 m),47.70166667,13.99638889
1287. Monte Chiadin (2269 m),46.59722222,12.73833333
1288. Monte Vacalizza (2266 m),46.30500000,12.47666667
1289. Hochschottwies (2262 m),47.51416667,13.12472222
1290. Cima Carega (2259 m),45.72416667,11.13000000
1291. Höfats (2259 m),47.36694444,10.34972222
1292. Croix de Rougny (2259 m),44.85916667,5.99944444
1293. Soiernspitze (2257 m),47.48166667,11.35750000
1294. Monte Cadria (2254 m),45.93861111,10.69805556
1295. Dent de Savigny (2252 m),46.54972222,7.22666667
1296. Hirschkopf (2252 m),47.23250000,12.94250000
1297. Admonter Reichenstein (2251 m),47.54916667,14.54416667
1298. Cimon del Cavallo (2251 m),46.13333333,12.49638889
1299. Pta Setteventi (2250 m),45.86027778,10.39277778
1300. Morgenberghorn (2249 m),46.62222222,7.79361111
1301. Hochkogel (2249 m),47.32833333,12.61694444
1302. Rötelstein (2247 m),47.45722222,13.55527778
1303. Gaishorn (2247 m),47.47000000,10.47694444
1304. Sparafeld (2247 m),47.54944444,14.53027778
1305. Pizzo di Gino (2245 m),46.12361111,9.14500000
1306. Großer Pyhrgas (2244 m),47.65250000,14.39805556
1307. Roc d'Enfer (2244 m),46.18972222,6.61194444
1308. Krn (2244 m),46.26611111,13.65833333
1309. Piz di Mezzodì (2240 m),46.21888889,12.03611111
Rosskofel /M Cavallo di Pontebba (2239 m),46.55055556,13.24027778
1310. Köllenspitze (2238 m),47.49888889,10.63027778
1311. Hochstuhl / Veliki Stol (2237 m),46.43361111,14.17472222
1312. Monte Larone (2237 m),46.21916667,8.36277778
1313. Latschur (2236 m),46.73833333,13.39666667
1314. Croise Baulet (2236 m),45.89888889,6.55277778
1315. Schafberg (2235 m),46.63694444,7.31638889
1316. Pasubio (Cima Palon) (2232 m),45.79222222,11.17638889
1317. Pte d'Almet (2232 m),45.98138889,6.52194444
1318. Geierkogel (2231 m),47.39972222,14.49972222
1319. Hoher Ifen (2230 m),47.35444444,10.10000000
1320. Monte Messer (2230 m),46.17527778,12.45500000
1321. Monte Lavanech (2229 m),45.95138889,10.54333333
1322. Monte Borga (2228 m),46.29361111,12.34944444
1323. Gumpeneck (2226 m),47.39722222,14.01472222
1324. Großer Buchstein (2224 m),47.60888889,14.60416667
1325. Kalški Greben (2224 m),46.33138889,14.53805556
1326. Rappenspitze (2223 m),47.40222222,11.64583333
1327. Sosto (2221 m),46.54833333,8.95194444
1328. Dent d'Oche (2221 m),46.35333333,6.73111111
1329. Hochrettelstein (2220 m),47.42472222,14.23277778
1330. Hochkarfelderkopf (2219 m),47.51916667,13.35555556
1331. Cima Valdritta (2218 m),45.72638889,10.84388889
1332. Pte d'Arcalod (2217 m),45.68166667,6.22833333
1333. Lugauer (2217 m),47.55361111,14.72277778
1334. Kleiner Rettenstein (2216 m),47.33638889,12.34166667
1335. Les Jumelles (2215 m),46.35194444,6.81222222
1336. Steinbergstein (2215 m),47.34138889,12.19027778
1337. Gößeck (2214 m),47.44805556,14.89972222
1338. Schwarzwand (2214 m),47.00750000,13.69305556
1339. Aineck (2210 m),47.05555556,13.63833333
1340. Würflinghöhe (2210 m),47.00750000,13.95166667
1341. Monte La Palazza (2210 m),46.31055556,12.35583333
1342. Rombon (2208 m),46.36722222,13.55388889
1343. Mont Charvin (2207 m),45.21750000,6.28500000
1344. Hoher Trieb (2199 m),46.59694444,13.06166667
1345. Pte de la Sambuy (2198 m),45.69166667,6.26555556
1346. Galinakopf (2198 m),47.15166667,9.62083333
1347. Cima di Vanerle (2198 m),46.05138889,10.28138889
1348. Pécloz (2197 m),45.63194444,6.23055556
1349. Hohgant (2197 m),46.78805556,7.90166667
1350. Scheiblingstein (2197 m),47.65333333,14.42388889
1351. Große Arnspitze (2196 m),47.39750000,11.22277778
1352. Chrüz (2196 m),46.95500000,9.77500000
1353. Hochschwung (2196 m),47.40722222,14.33944444
1354. Zuc dal Bôr / Zuc del Bor (2195 m),46.44944444,13.25861111
1355. Gartnerkofel (2195 m),46.57138889,13.30416667
1356. Hochwipfel (2195 m),46.59444444,13.17666667
1357. Guffert (2194 m),47.54611111,11.78916667
1358. Cima della Laurasca (2193 m),46.05805556,8.47611111
1359. Hochzinödl (2191 m),47.56583333,14.66638889
1360. Stockhorn (2190 m),46.69388889,7.53750000
1361. Hinterer Geißstein (2190 m),47.30666667,13.53861111
1362. Blayeul (2189 m),44.24722222,6.31222222
1363. Gros Van (2189 m),46.39638889,7.06916667
1364. Gridone (2188 m),46.12361111,8.64805556
1365. Ochsen (2188 m),46.69888889,7.41861111
1366. Ameringkogel (2187 m),47.07333333,14.80805556
1367. Monte Sernio (2187 m),46.47500000,13.13750000
1368. Pizzocco (2187 m),46.14000000,12.00944444
1369. Kreuzspitze (2185 m),47.52666667,10.91833333
1370. Monte Misa (2184 m),45.90111111,10.44416667
1371. Monte Rite (2183 m),46.38444444,12.25805556
1372. Pizzo Stagno (2183 m),46.07722222,8.45916667
1373. Trélod (2181 m),45.69277778,6.19638889
1374. Monte Bondone (Cornetto) (2180 m),45.98805556,11.03138889
1375. Wertatscha / Vrtača (2180 m),46.43972222,14.21250000
1376. Lüschgrat (2178 m),46.70166667,9.34472222
1377. Grignetta (2177 m),45.92166667,9.39027778
1378. Pte d'entre Deux Pertuis (2176 m),46.23416667,6.73111111
1379. Signal de l'Homme (2176 m),45.06694444,6.08555556
1380. Bulacia / Puflatsch (2174 m),46.56388889,11.61500000
1381. Hexenturm (2172 m),47.64583333,14.48111111
1382. Goldachnock (2171 m),47.03472222,14.05750000
1383. Monte Crot (2169 m),46.42722222,12.09972222
1384. Monte Chiarescons (2168 m),46.34777778,12.62638889
1385. Dobratsch (2166 m),46.60333333,13.67111111
1386. Col Rosa (2166 m),46.58611111,12.09750000
1387. Eisenerzer Reichenstein (2165 m),47.50250000,14.93444444
1388. Gehrenspitze (2163 m),47.50027778,10.65527778
1389. Geierköpfe (2161 m),47.51972222,10.87500000
1390. Monte Massone (2161 m),45.94694444,8.33805556
1391. Pic de Gleize (2161 m),44.63444444,6.04388889
1392. Zuccone Campelli (2159 m),45.95333333,9.51694444
1393. Monte Zeda (2156 m),46.04555556,8.53527778
1394. Dosso della Torta (2156 m),45.96666667,10.76388889
1395. Frudiger (2153 m),46.96888889,10.57944444
1396. Monte Padrio (2153 m),46.18666667,10.22750000
1397. Hochmatt (2152 m),46.57583333,7.22000000
1398. Becco di Filadonna (2150 m),45.96361111,11.19305556
1399. Cresta Le Coraie (2149 m),46.20972222,12.07750000
1400. Pizzo Camino (2148 m),45.97750000,8.23444444
1401. Wöllaner Nock (2145 m),46.77666667,13.82972222
1402. Mittagskogel / Kepa (2143 m),46.50666667,13.95277778
1403. Monte Zermula (2143 m),46.56138889,13.15138889
1404. Goldeck (2142 m),46.75861111,13.45944444
1405. Großer Speikkogel (2140 m),46.78750000,14.97166667
1406. Gstoder (2140 m),47.14250000,13.99250000
1407. Hochobir / Ojstrc (2139 m),46.50583333,14.48777778
1408. Kammspitz (2139 m),47.47611111,13.88500000
1409. Strimskogel (2139 m),47.31194444,13.47083333
1410. Koschutnikturm /Košutnikov turn (2136 m),46.44611111,14.41055556
1411. Dôme de Barrot (2136 m),44.03694444,6.91722222
1412. Cime de Marta / Cima Marta (2135 m),44.01833333,7.65694444
1413. Monte Colli (2135 m),46.03194444,10.20138889
1414. Glatthorn (2134 m),47.26527778,9.87972222
1415. Monte Serva (2133 m),46.20027778,12.23277778
1416. Storžič (2132 m),46.35000000,14.40527778
1417. Monte Birrone (2131 m),44.54250000,7.25222222
1418. Pilatus (Tomlishorn) (2128 m),46.97388889,8.24111111
1419. Elm (2128 m),47.67361111,13.96305556
1420. Kordeschkopf / Kordeževa glava (2126 m),46.50000000,14.78055556
1421. Jerebica (2126 m),46.39805556,13.56500000
1422. Paganella (Cima Roda) (2124 m),46.14333333,11.03750000
1423. Kuhgrat (2123 m),47.16666667,9.56083333
1424. Montagne du Carton (2123 m),44.18138889,6.46083333
1425. Ebenstein (2123 m),47.60583333,15.02833333
1426. Zeiritzkampel (2120 m),47.49138889,14.72611111
Monte Tinisa (2120 m),46.41361111,12.71861111
1427. Spitzegel (2119 m),46.65500000,13.41055556
1428. Wildseeloder (2119 m),47.43194444,12.53194444
1429. Hundstein (2117 m),47.33805556,12.91138889
1430. Roen (2116 m),46.36055556,11.19194444
1431. Almkogel (2116 m),47.61944444,14.09305556
Gsuchmauer (2116 m),47.54888889,14.66750000
1432. Les Monges (2115 m),44.26305556,6.19472222
1433. Montagne de Cordœil (2114 m),44.06833333,6.53000000
Pte de Chalune (2113 m),46.18027778,6.58333333
1434. Sommet de Clot Ginoux (2112 m),44.29638889,6.21277778
1435. Le Chamossaire (2112 m),46.32666667,7.06138889
1436. Mirnock (2110 m),46.75888889,13.71555556
1437. Trentski Pelc (2109 m),46.38583333,13.70944444
1438. Millstätter Alpe (P 2108) (2108 m),46.85722222,13.57833333
1439. Tête de Comagne (2106 m),45.74500000,7.72194444
1440. Mondscheinspitze (2106 m),47.46666667,11.61361111
1441. Les Cluots (2106 m),44.04694444,7.00472222
1442. Schluchberg (2106 m),46.86666667,8.33388889
1443. Hochkogel (2105 m),47.53888889,14.81527778
1444. Schopfenspitz / Gros Brun (2104 m),46.62250000,7.25055556
1445. Schönberg (2104 m),47.13027778,9.59305556
1446. Mont Chalancha (2102 m),44.03500000,7.21277778
1447. Schafreuter (2102 m),47.50916667,11.48750000
1448. Pizzo Proman (2099 m),46.02416667,8.39472222
1449. Zwölferkogel (2099 m),47.70944444,13.95250000
1450. Simmering (2096 m),47.27805556,10.86694444
1451. Himmeleck (2096 m),47.42666667,14.60305556
1452. Damülser Mittagsspitze (2095 m),47.31027778,9.88388889
1453. Schönberg / Wildenkogel (2093 m),47.71250000,13.79361111
1454. Mont Chauffé (2093 m),46.30916667,6.76055556
1455. Schrattenfluh (Hengst) (2092 m),46.83416667,7.95777778
1456. Schatzbichl (2090 m),46.72416667,12.91194444
1457. Il Palone (2090 m),46.02694444,11.05861111
1458. Pte d'Angolon (2090 m),46.13805556,6.73083333
1459. Diedamskopf (2090 m),47.34638889,10.02555556
1460. Itonskopf (2089 m),47.11611111,9.93333333
1461. Jôf di Miezegnot (2087 m),46.47666667,13.45333333
1462. Pic Grillon (2087 m),44.75138889,5.91777778
1463. Krottenkopf (2086 m),47.54500000,11.19333333
1464. Montagne Durbonas (2086 m),44.61111111,5.75944444
1465. Mont de l'Arpille (2085 m),46.07722222,7.00666667
1466. Seebergspitze (2085 m),47.46611111,11.67972222
1467. Mont Aig. (2085 m),44.84194444,5.55250000
1468. Monte Zelo (2083 m),46.26333333,12.09250000
1469. Zadnjiški Ozebnik (2083 m),46.36944444,13.78222222
Krofička (2083 m),46.37444444,14.64583333
1470. Chamechaude (2082 m),45.28805556,5.79000000
1471. Hochplatte (2082 m),47.55222222,10.84250000
1472. Trenchtling (Hochturm) (2081 m),47.53444444,15.00805556
1473. Breithorn (2081 m),47.21138889,9.91416667
1474. Monte Altissimo di Nago (2079 m),45.81027778,10.88888889
1475. Ladinger Spitz (2079 m),46.85333333,14.65083333
1476. Rinderberg (2079 m),46.50527778,7.35694444
1477. Turnen (2079 m),46.62777778,7.49250000
1478. Vorderunnütz (2078 m),47.51472222,11.73888889
1479. Klosterwappen (2076 m),47.76722222,15.80500000
1480. Cima del Cacciatore / Kamniti Lovec (2071 m),46.46472222,13.52805556
1481. Stadelstein (2070 m),47.48972222,14.85694444
1482. Monte Coppolo (2069 m),46.08277778,11.71083333
1483. Hirscheck (2068 m),47.62750000,14.12305556
1484. Monte Resettum (2067 m),46.23972222,12.57722222
1485. Col Gentile (2067 m),46.46611111,12.80555556
1486. Padauner Kogel (2066 m),47.04277778,11.50750000
1487. Dosso Alto (2065 m),45.81333333,10.41694444
1488. Creta Grauzaria (2065 m),46.46750000,13.16250000
1489. Großer Woising (2064 m),47.71611111,13.90388889
1490. Chateau Lebrun (2064 m),44.80222222,6.53000000
1491. Burgfeldstand (2063 m),46.72222222,7.79472222
1492. Dent de Cons (2062 m),45.72972222,6.35166667
1493. Raduha (2062 m),46.40972222,14.73833333
1494. Dent de Crolles (2062 m),45.30833333,5.85694444
1495. Monte Dosaip (2062 m),46.28388889,12.63694444
1496. Monte Agaro (2062 m),46.09361111,11.65777778
1497. Pic Melette (2062 m),44.62694444,6.01472222
1498. Begunjščica (2060 m),46.42138889,14.22916667
1499. Monte Stivo (2059 m),45.92055556,10.96361111
1500. Monte Toff (2058 m),46.10666667,10.78833333
1501. Oisternig / Ojstrnik (2052 m),46.56555556,13.50000000
1502. Mont Jocou (2051 m),44.72416667,5.64750000
1503. Sigriswiler Rothorn (2051 m),46.73055556,7.77055556
1504. Mont Lachat de Chatillon (2050 m),45.95972222,6.47666667
1505. Roc Cornafion (2049 m),45.06333333,5.60250000
1506. Stoderzinken (2048 m),47.45944444,13.82888889
1507. Säuling (2047 m),47.53500000,10.75583333
1508. Hundsrügg (2047 m),46.55666667,7.30527778
1509. Mont Colombier (2045 m),45.64416667,6.11972222
1510. Spielberghorn (2044 m),47.43222222,12.63277778
1511. Monte Barone (2044 m),45.73500000,8.15500000
1512. Kanisfluh (Holenke) (2044 m),47.33166667,9.92694444
1513. Güpfi (2043 m),46.79611111,8.19527778
1514. Rochers de Naye (2042 m),46.43194444,6.97611111
1515. Pte de Bellevue (2042 m),46.25750000,6.88750000
1516. Le Glandasse (Pié Ferré) (2041 m),44.73722222,5.47138889
1517. Fürstein (2040 m),46.89555556,8.06972222
1518. Saldeiner Spitze (2036 m),47.39888889,10.53222222
Leobner (2036 m),47.49416667,14.65000000
1519. Tamischbachturm (2035 m),47.61472222,14.69916667
1520. Monte Curie (2035 m),46.59555556,12.61361111
1521. Griesmauerkogel (2034 m),47.55111111,14.98361111
1522. Tête Grosse (2032 m),44.33138889,6.27388889
1523. Gamsfeld (2027 m),47.62305556,13.48111111
1524. Grand Som (2026 m),45.37111111,5.81305556
1525. Fleischbank (2026 m),47.47888889,11.51944444
1526. Pte d'Aveneyre (2026 m),46.41722222,7.00472222
1527. Raut (2025 m),46.22222222,12.64944444
1528. Kosiak / Geißberg (2024 m),46.45305556,14.18166667
1529. Mont Lachat (2023 m),45.92722222,6.35111111
1530. Schreckenspitze (2022 m),47.50000000,11.64944444
1531. Monte Alben (2019 m),45.86222222,9.78194444
1532. Céüse (2016 m),44.50888889,5.96194444
1533. Monte Verena (2015 m),45.93111111,11.41361111
1534. Dent de Lys (2014 m),46.50777778,7.00305556
1535. Montagne de l'Ubac (2010 m),44.26111111,6.41388889
1536. Bäderhorn (2009 m),46.61333333,7.32750000
1537. Heukuppe (2007 m),47.68944444,15.68777778
1538. Corna Blacca  (2006 m),45.79138889,10.38055556
1539. Dristenkopf (2005 m),47.42055556,11.66416667
1540. Montagne de Sous Dine (2004 m),46.00388889,6.32861111
1541. Golz (2004 m),46.67138889,13.36583333
1542. Pizzo Ruscada (2004 m),46.17750000,8.59277778
1543. Brandstein (2003 m),47.60083333,14.98277778
1544. Moléson (2002 m),46.54888889,7.01722222
1545. Vordere Kesselschneid (2001 m),47.60666667,12.27750000
1546. Poludnig / Poludnik (1999 m),46.57194444,13.41027778
1547. Monte Venturosa (1999 m),45.92972222,9.61583333
1548. Pte de Marcelly (1999 m),46.12861111,6.57555556
1549. Monte Scinauz (1999 m),46.53222222,13.36388889
1550. Puy de Rent (1996 m),44.02138889,6.59083333
1551. Kitzbüheler Horn (1996 m),47.47611111,12.43000000
