Name,latitude,longitude
Aneto(3404m),42.5513,0.8148
Posets(3375m),42.8376,0.2637
Perdiguero(3221m),42.8533,0.1667
MontePerdido(3355m),42.9079,0.0860
PicodeEstats(3143m),42.5733,0.6359
Montardo(3122m),42.5986,0.1614
MonteAragonés(3094m),42.8069,0.0103
Tendeñera(3102m),42.6173,0.2506
Puigmal(2913m),42.4067,1.7300
Balaïtous(3144m),42.9015,0.6760