Name,latitude,longitude
1. Puy de Sancy (1886m),45.528238,2.814012
2. Puy de Dôme (1465m),45.771949,2.964029
3. Plomb du Cantal (1855m),45.059213,2.761055
4. Mont Lozère (1702m),44.426622,3.738706
5. Mont Mezenc (1753m),44.913545,4.190565
6. Mont Gerbier de Jonc (1551m),44.844203,4.220418
9 Mont Aigoual (1567m),44.121331,3.582028